date_time,city_area,state,ufo_shape,encounter_length,latitude,longitude,Month
10/10/1949 20:30,san marcos,Texas,cylinder,2700.0,29.883055600000006,-97.94111109999999,10
10/10/1956 21:00,edna,Texas,circle,20.0,28.9783333,-96.64583329999999,10
10/10/1960 20:00,kaneohe,Hawaii,light,900.0,21.418055600000002,-157.8036111,10
10/10/1961 19:00,bristol,Tennessee,sphere,300.0,36.595,-82.18888890000001,10
10/10/1965 23:45,norwalk,Connecticut,disk,1200.0,41.1175,-73.4083333,10
10/10/1966 20:00,pell city,Alabama,disk,180.0,33.586111100000004,-86.28611109999999,10
10/10/1966 21:00,live oak,Florida,disk,120.0,30.294722200000002,-82.9841667,10
10/10/1968 13:00,hawthorne,California,circle,300.0,33.916388899999994,-118.35166670000001,10
10/10/1968 19:00,brevard,North Carolina,fireball,180.0,35.2333333,-82.7344444,10
10/10/1970 16:00,bellmore,New York,disk,1800.0,40.66861110000001,-73.5275,10
10/10/1971 21:00,lexington,North Carolina,oval,30.0,35.8238889,-80.25361109999999,10
10/10/1972 19:00,harlan county,Kentucky,circle,1200.0,36.84305560000001,-83.3219444,10
10/10/1972 22:30,west bloomfield,Michigan,disk,120.0,42.5377778,-83.2330556,10
10/10/1973 19:00,niantic,Connecticut,disk,1800.0,41.3252778,-72.1936111,10
10/10/1974 23:00,hudson,Kansas,light,1200.0,38.1055556,-98.6597222,10
10/10/1975 17:00,north charleston,South Carolina,light,360.0,32.8544444,-79.975,10
10/10/1976 20:30,washougal,Washington,oval,60.0,45.5827778,-122.3522222,10
10/10/1977 22:00,louisville,Kentucky,light,30.0,38.2541667,-85.7594444,10
10/10/1978 02:00,elmont,New York,rectangle,300.0,40.7008333,-73.7133333,10
10/10/1979 00:00,poughkeepsie,New York,chevron,900.0,41.7002778,-73.92138890000001,10
10/10/1979 22:00,san diego,California,oval,180.0,32.7152778,-117.1563889,10
10/10/1980 19:00,houston,Texas,sphere,180.0,29.763055600000005,-95.3630556,10
10/10/1980 23:30,manchester,New Hampshire,light,300.0,42.9955556,-71.45527779999999,10
10/10/1984 05:00,houston,Texas,circle,60.0,29.763055600000005,-95.3630556,10
10/10/1984 22:00,white plains,New York,formation,20.0,41.033888899999994,-73.7633333,10
10/10/1988 18:00,milwaukee,Wisconsin,triangle,600.0,43.038888899999996,-87.90638890000001,10
10/10/1988 22:00,boulder,Colorado,light,60.0,40.015,-105.27,10
10/10/1989 00:00,calabasas,California,disk,300.0,34.1577778,-118.6375,10
10/10/1989 21:00,centralia,Washington,triangle,60.0,46.7163889,-122.95305559999998,10
10/10/1990 21:00,ashburn,Georgia,triangle,120.0,31.7058333,-83.6533333,10
10/10/1991 22:00,harrisburg,Pennsylvania,triangle,600.0,40.273611100000004,-76.88472220000001,10
10/10/1992 17:00,panama city,Florida,formation,3600.0,30.1586111,-85.66027779999999,10
10/10/1992 20:15,seymour,Tennessee,cigar,60.0,35.890555600000006,-83.7247222,10
10/10/1993 22:00,peoria,Illinois,light,8.0,40.693611100000005,-89.58888890000001,10
10/10/1994 18:30,burnt hills,New York,rectangle,120.0,42.9097222,-73.8955556,10
10/10/1994 22:00,pinebergen,Arkansas,light,5.0,34.1027778,-91.9922222,10
10/10/1996 03:20,higginsville,Missouri,triangle,3.0,39.0725,-93.7169444,10
10/10/1996 22:00,charleston,South Carolina,light,300.0,32.77638889999999,-79.9311111,10
10/10/1996 22:30,monroe county,Ohio,cylinder,60.0,39.4402778,-84.3622222,10
10/10/1997 16:00,connersville,Indiana,delta,14400.0,39.6411111,-85.14111109999999,10
10/10/1997 17:00,mesa,Arizona,sphere,30.0,33.4222222,-111.8219444,10
10/10/1997 20:00,bonaire,Georgia,triangle,300.0,32.54361110000001,-83.59611109999999,10
10/10/1998 03:30,phoenix (north part),Arizona,fireball,15.0,33.4483333,-112.07333329999999,10
10/10/1998 13:15,elgin,Illinois,cylinder,1800.0,42.0372222,-88.28111109999999,10
10/10/1998 17:30,las vegas,Nevada,cigar,600.0,36.175,-115.1363889,10
10/10/1998 17:30,las vegas,Nevada,circle,2700.0,36.175,-115.1363889,10
10/10/1998 20:30,spokane (about 30 miles sw of&#44i-90&#44 maybe mm 254),Washington,triangle,600.0,47.658888899999994,-117.425,10
10/10/1998 20:50,mooresville,North Carolina,light,2.0,35.5847222,-80.8102778,10
10/10/1998 23:50,delano,Tennessee,fireball,15.0,35.265,-84.55333329999999,10
10/10/1999 11:00,san diego,California,fireball,3600.0,32.7152778,-117.1563889,10
10/10/1999 12:40,kennewick,Washington,sphere,45.0,46.211388899999996,-119.13611110000001,10
10/10/1999 20:35,hayward,California,circle,90.0,37.6688889,-122.0797222,10
10/10/1999 21:00,rachel,Nevada,light,10800.0,37.644722200000004,-115.7427778,10
10/10/1999 21:30,humphrey,Nebraska,sphere,300.0,41.6916667,-97.4841667,10
10/10/1999 22:30,elgin,Oregon,chevron,240.0,45.565,-117.9163889,10
10/10/1999 23:45,lewiston,Michigan,oval,2700.0,44.883888899999995,-84.3055556,10
10/10/2000 03:00,perryville,Missouri,oval,180.0,37.724166700000005,-89.86111109999999,10
10/10/2000 20:30,brinktown,Missouri,light,1800.0,38.1266667,-92.0844444,10
10/10/2000 21:30,florence,Kentucky,light,5.0,38.9988889,-84.6266667,10
10/10/2000 22:00,port orchard,Washington,diamond,60.0,47.540555600000005,-122.635,10
10/10/2001 03:00,rockwell city,Iowa,triangle,240.0,42.3952778,-94.6336111,10
10/10/2001 20:35,hayward,California,circle,120.0,37.6688889,-122.0797222,10
10/10/2001 21:15,ottumwa,Iowa,rectangle,300.0,41.0041667,-92.37361109999999,10
10/10/2001 22:00,phoenix,Arizona,triangle,60.0,33.4483333,-112.07333329999999,10
10/10/2001 23:00,virginia beach,Virginia,triangle,30.0,36.8527778,-75.9783333,10
10/10/2002 00:01,hayward,Wisconsin,flash,43.0,46.0130556,-91.4844444,10
10/10/2002 06:00,seattle,Washington,sphere,90.0,47.6063889,-122.33083329999998,10
10/10/2002 21:00,portland,Oregon,circle,120.0,45.523611100000004,-122.675,10
10/10/2003 12:00,alhambra,California,oval,300.0,34.0952778,-118.1261111,10
10/10/2003 18:00,indianapolis,Indiana,sphere,1800.0,39.7683333,-86.1580556,10
10/10/2003 20:05,grand view,Idaho,light,15.0,42.9897222,-116.0925,10
10/10/2003 20:25,temperance,Michigan,oval,18000.0,41.779166700000005,-83.5688889,10
10/10/2003 21:10,crescent beach,South Carolina,formation,37800.0,33.8075,-78.70111109999999,10
10/10/2003 22:00,albuquerque,New Mexico,light,180.0,35.084444399999995,-106.65055559999999,10
10/10/2003 23:25,gleason,Wisconsin,sphere,1800.0,45.3088889,-89.49638890000001,10
10/10/2004 02:50,mahwah,New Jersey,triangle,180.0,41.0886111,-74.1441667,10
10/10/2004 04:18,terre haute,Indiana,sphere,5.0,39.466666700000005,-87.4138889,10
10/10/2004 08:30,indianapolis,Indiana,oval,15.0,39.7683333,-86.1580556,10
10/10/2004 14:00,morgantown,West Virginia,circle,10.0,39.6294444,-79.95611109999999,10
10/10/2004 15:00,rock island,Illinois,sphere,3600.0,41.50944439999999,-90.57861109999999,10
10/10/2004 19:00,ripley,New York,circle,900.0,42.26694439999999,-79.7108333,10
10/10/2004 21:00,faribault,Minnesota,flash,900.0,44.295,-93.26861109999999,10
10/10/2004 21:00,mansfield,Ohio,light,7200.0,40.7583333,-82.5155556,10
10/10/2004 22:00,columbia,Missouri,light,60.0,38.951666700000004,-92.3338889,10
10/10/2004 23:30,gleason,Wisconsin,sphere,3000.0,45.3088889,-89.49638890000001,10
10/10/2005 09:30,north miami beach,Florida,oval,1800.0,25.932777800000004,-80.16277779999999,10
10/10/2005 14:45,los angeles,California,egg,10.0,34.0522222,-118.2427778,10
10/10/2005 20:00,loretto,Pennsylvania,triangle,300.0,40.5030556,-78.6305556,10
10/10/2005 22:08,east wenatchee,Washington,light,1200.0,47.415833299999996,-120.29194440000002,10
10/10/2005 23:00,hendersonville,North Carolina,light,600.0,35.318611100000005,-82.4611111,10
10/10/2005 23:07,brainerd,Minnesota,disk,300.0,46.35805560000001,-94.2005556,10
10/10/2006 01:00,pennington,Texas,diamond,3600.0,31.191111100000004,-95.23527779999999,10
10/10/2006 05:00,san francisco,California,triangle,600.0,37.775,-122.41833329999999,10
10/10/2006 16:00,savannah,Tennessee,light,600.0,35.2247222,-88.2491667,10
10/10/2006 16:00,waynesboro,Virginia,triangle,600.0,38.0683333,-78.88972220000001,10
10/10/2006 22:40,waycross,Georgia,light,120.0,31.2133333,-82.35416670000001,10
10/10/2006 22:50,wolfforth,Texas,disk,300.0,33.5058333,-102.0086111,10
10/10/2007 01:00,lebanon,Oregon,light,14400.0,44.536666700000005,-122.90583329999998,10
10/10/2007 04:30,jacksonville,Florida,sphere,30.0,30.331944399999998,-81.6558333,10
10/10/2007 06:00,indio,California,oval,600.0,33.720555600000004,-116.21472220000001,10
10/10/2007 13:00,owego,New York,triangle,10800.0,42.103333299999996,-76.2625,10
10/10/2007 18:33,downingtown,Pennsylvania,circle,120.0,40.0063889,-75.70361109999999,10
10/10/2007 19:00,austin,Texas,flash,3.0,30.266944399999996,-97.7427778,10
10/10/2007 20:10,starrsville (covington),Georgia,sphere,60.0,33.539444399999994,-83.8194444,10
10/10/2007 21:00,jensen beach,Florida,oval,120.0,27.254166700000003,-80.23,10
10/10/2007 21:43,houston,Texas,formation,35.0,29.763055600000005,-95.3630556,10
10/10/2007 22:00,duluth,Minnesota,light,600.0,46.783333299999995,-92.10638890000001,10
10/10/2007 22:00,fleming,Colorado,circle,600.0,40.68,-102.83888890000001,10
10/10/2007 23:05,northglenn,Colorado,triangle,15.0,39.8855556,-104.98666670000001,10
10/10/2008 02:00,north branch,Minnesota,light,300.0,45.5113889,-92.98,10
10/10/2008 02:00,slingerlands,New York,circle,240.0,42.6291667,-73.865,10
10/10/2008 04:00,carlin,Nevada,disk,600.0,40.71388889999999,-116.10305559999999,10
10/10/2008 04:50,evansville,Indiana,formation,600.0,37.9747222,-87.5558333,10
10/10/2008 06:00,albany,New York,oval,45.0,42.6525,-73.7566667,10
10/10/2008 10:22,fremont,California,triangle,60.0,37.548333299999996,-121.9875,10
10/10/2008 18:00,yuma,Arizona,triangle,900.0,32.7252778,-114.6236111,10
10/10/2008 19:00,south bend,Indiana,light,600.0,41.6833333,-86.25,10
10/10/2008 20:00,la crescent,Minnesota,formation,10.0,43.828055600000006,-91.3038889,10
10/10/2008 20:00,philadelphia,Pennsylvania,oval,60.0,39.9522222,-75.1641667,10
10/10/2008 20:00,seattle,Washington,light,180.0,47.6063889,-122.33083329999998,10
10/10/2008 20:40,pueblo,Colorado,light,300.0,38.2544444,-104.60861109999999,10
10/10/2008 21:30,cincinnati,Ohio,oval,900.0,39.161944399999996,-84.4569444,10
10/10/2008 22:00,san diego,California,disk,30.0,32.7152778,-117.1563889,10
10/10/2008 22:30,madison,Wisconsin,circle,20.0,43.0730556,-89.4011111,10
10/10/2008 23:15,coldwater,Ohio,sphere,60.0,40.4797222,-84.6283333,10
10/10/2009 12:00,crested butte,Colorado,egg,60.0,38.8697222,-106.9872222,10
10/10/2009 20:30,anaheim,California,light,300.0,33.8352778,-117.9136111,10
10/10/2009 20:45,wilmington,North Carolina,light,600.0,34.22555560000001,-77.945,10
10/10/2009 21:00,leesburg,Virginia,disk,300.0,39.11555560000001,-77.56388890000001,10
10/10/2009 23:23,cupertino,California,light,180.0,37.3230556,-122.0311111,10
10/10/2010 01:00,orchard park,New York,light,7200.0,42.7675,-78.74416670000001,10
10/10/2010 02:30,harrisburg,Pennsylvania,circle,240.0,40.273611100000004,-76.88472220000001,10
10/10/2010 03:00,euclid,Ohio,circle,180.0,41.59305560000001,-81.5269444,10
10/10/2010 08:30,starr,South Carolina,formation,600.0,34.3769444,-82.6958333,10
10/10/2010 12:00,greenwich,Connecticut,light,240.0,41.02638889999999,-73.6288889,10
10/10/2010 13:00,north charleston,South Carolina,light,180.0,32.8544444,-79.975,10
10/10/2010 16:30,springfield,Virginia,cigar,15.0,38.7891667,-77.1875,10
10/10/2010 17:10,bridgeport,Connecticut,light,600.0,41.1669444,-73.20527779999999,10
10/10/2010 18:30,clackamas,Oregon,triangle,120.0,45.4077778,-122.56916670000001,10
10/10/2010 20:00,san angelo,Texas,oval,60.0,31.463611100000005,-100.4366667,10
10/10/2010 20:20,windsor,Connecticut,fireball,5.0,41.8525,-72.6441667,10
10/10/2010 20:45,sterling,Illinois,cylinder,600.0,41.788611100000004,-89.6961111,10
10/10/2010 21:00,kykotsmovi,Arizona,disk,7200.0,35.8752778,-110.61972220000001,10
10/10/2010 21:30,albany,New York,circle,10.0,42.6525,-73.7566667,10
10/10/2010 22:30,garden grove,California,egg,7200.0,33.773888899999996,-117.94055559999998,10
10/10/2011 00:00,troy,New York,triangle,7200.0,42.728333299999996,-73.6922222,10
10/10/2011 01:00,farmington,New Mexico,circle,300.0,36.728055600000005,-108.21805559999999,10
10/10/2011 10:30,ashville,New York,circle,60.0,42.096388899999994,-79.3758333,10
10/10/2011 14:30,north kingstown,Rhode Island,oval,40.0,41.55,-71.4666667,10
10/10/2011 15:00,groton,Connecticut,disk,5.0,41.35,-72.07888890000001,10
10/10/2011 19:00,mechanicsville,Virginia,light,300.0,37.608611100000005,-77.37361109999999,10
10/10/2011 20:00,middletown,Connecticut,fireball,1200.0,41.5622222,-72.6511111,10
10/10/2011 21:00,lakewood,Ohio,fireball,60.0,41.481944399999996,-81.7983333,10
10/10/2011 21:00,york,Pennsylvania,circle,15.0,39.9625,-76.7280556,10
10/10/2011 21:55,north platte,Nebraska,circle,3.0,41.1238889,-100.765,10
10/10/2011 23:00,waynesville,Ohio,triangle,90.0,39.5297222,-84.0866667,10
10/10/2012 10:15,bridgeport,Connecticut,circle,630.0,41.1669444,-73.20527779999999,10
10/10/2012 18:56,san diego,California,sphere,240.0,32.7152778,-117.1563889,10
10/10/2012 19:09,sterling heights,Michigan,oval,120.0,42.5802778,-83.0302778,10
10/10/2012 19:40,syracuse,New York,light,900.0,43.048055600000005,-76.1477778,10
10/10/2012 19:45,syracuse,New York,circle,240.0,43.048055600000005,-76.1477778,10
10/10/2012 20:00,colorado springs,Colorado,light,20.0,38.8338889,-104.8208333,10
10/10/2012 20:15,new york city (bronx),New York,disk,1800.0,40.7141667,-74.0063889,10
10/10/2012 20:30,las cruces,New Mexico,fireball,120.0,32.3122222,-106.7777778,10
10/10/2012 20:30,marion,Illinois,light,240.0,37.7305556,-88.9330556,10
10/10/2012 20:45,phoenix,Arizona,sphere,300.0,33.4483333,-112.07333329999999,10
10/10/2012 20:48,yakima,Washington,light,240.0,46.6022222,-120.5047222,10
10/10/2012 21:00,bean station,Tennessee,cigar,180.0,36.343611100000004,-83.2841667,10
10/10/2012 21:00,rochester,Washington,light,600.0,46.82194439999999,-123.095,10
10/10/2012 23:01,suffern,New York,cylinder,20.0,41.1147222,-74.15,10
10/10/2012 23:20,rancho mirage,California,rectangle,5.0,33.7397222,-116.41194440000001,10
10/10/2013 02:32,palm harbor,Florida,chevron,5.0,28.0777778,-82.76388890000001,10
10/10/2013 17:00,st. louis county,Missouri,light,10800.0,38.6272222,-90.1977778,10
10/10/2013 19:00,rittman,Ohio,light,60.0,40.978055600000005,-81.7822222,10
10/10/2013 19:20,essex junction,Vermont,light,120.0,44.49055560000001,-73.11138890000001,10
10/10/2013 19:20,kenner,Louisiana,circle,600.0,29.993888899999998,-90.2416667,10
10/10/2013 20:00,drexel,Ohio,circle,300.0,39.7463889,-84.2866667,10
10/10/2013 20:00,hudson,New Hampshire,light,5.0,42.7647222,-71.44027779999999,10
10/10/2013 20:30,grand blanc,Michigan,light,1200.0,42.9275,-83.63,10
10/10/2013 20:30,savage,Minnesota,circle,60.0,44.779166700000005,-93.3361111,10
10/10/2013 20:32,warren,Michigan,sphere,45.0,42.4775,-83.0277778,10
10/10/2013 20:35,canton,Michigan,triangle,180.0,42.3086111,-83.48222220000001,10
10/10/2013 21:17,lost creek,West Virginia,triangle,45.0,39.16111110000001,-80.3522222,10
10/10/2013 21:30,hudson,New Hampshire,light,1.0,42.7647222,-71.44027779999999,10
10/11/1973 16:45,jupiter,Florida,egg,14400.0,26.933888899999996,-80.0944444,10
10/11/1978 23:00,brighton,Michigan,circle,300.0,42.529444399999996,-83.7802778,10
10/11/1987 21:30,minnetonka,Minnesota,light,30.0,44.9133333,-93.5030556,10
10/11/1987 23:59,otto,Missouri,fireball,60.0,38.3708333,-90.50027779999999,10
10/11/1989 21:00,kewanee,Illinois,sphere,180.0,41.2455556,-89.9247222,10
10/11/1989 21:00,kewanee,Illinois,sphere,300.0,41.2455556,-89.9247222,10
10/11/1992 10:00,albuquerque,New Mexico,sphere,900.0,35.084444399999995,-106.65055559999999,10
10/11/1994 02:00,jackson,New Jersey,triangle,300.0,39.77638889999999,-74.86277779999999,10
10/11/1994 04:00,riverside,California,chevron,4.0,33.9533333,-117.39527779999999,10
10/11/1996 22:00,damascus,Virginia,light,60.0,36.6336111,-81.78388890000001,10
10/11/1998 14:05,vega baja (puerto rico),Puerto Rico,cigar,120.0,18.4463889,-66.3880556,10
10/11/1998 14:30,mount carmel,Tennessee,light,10.0,36.5452778,-82.66111109999999,10
10/11/1998 20:30,highland,Indiana,sphere,14400.0,39.794444399999996,-87.39583329999999,10
10/11/1998 22:40,bar harbor (bar island crossover),Maine,sphere,30.0,44.3875,-68.2044444,10
10/11/1998 22:45,elk grove,California,fireball,4.0,38.408888899999994,-121.37055559999999,10
10/11/1999 00:15,montgomery,Alabama,light,180.0,32.3666667,-86.3,10
10/11/1999 04:30,los angeles,California,light,300.0,34.0522222,-118.2427778,10
10/11/1999 07:40,three rivers,Michigan,oval,600.0,41.9438889,-85.6325,10
10/11/1999 09:10,canby,Oregon,light,10.0,45.2630556,-122.69138889999999,10
10/11/1999 20:15,portville,New York,oval,30.0,42.038611100000004,-78.34111109999999,10
10/11/1999 20:15,portville,New York,oval,30.0,42.038611100000004,-78.34111109999999,10
10/11/1999 20:15,portville,New York,oval,60.0,42.038611100000004,-78.34111109999999,10
10/11/1999 20:15,portville,New York,oval,60.0,42.038611100000004,-78.34111109999999,10
10/11/1999 21:00,winnemucca,Nevada,cigar,2.0,40.9730556,-117.73472220000001,10
10/11/1999 21:10,ashland,Oregon,triangle,45.0,42.1947222,-122.70833329999999,10
10/11/1999 21:30,augusta,Kansas,light,600.0,37.6866667,-96.9763889,10
10/11/1999 21:30,montgomery,Texas,light,3600.0,30.388055600000005,-95.6961111,10
10/11/1999 21:45,eureka springs,Arkansas,light,900.0,36.4011111,-93.73777779999999,10
10/11/1999 22:30,addison (i-355 and us 20 (lake st.),Illinois,disk,600.0,41.9316667,-87.9888889,10
10/11/2000 20:00,watertown,New York,light,30.0,43.9747222,-75.91111109999999,10
10/11/2000 22:00,elverta,California,light,30.0,38.71388889999999,-121.46166670000001,10
10/11/2000 23:30,whittier,California,light,1500.0,33.9791667,-118.03194440000001,10
10/11/2001 01:00,somerset,Wisconsin,light,10800.0,45.124444399999994,-92.6733333,10
10/11/2001 05:15,denver,Colorado,light,900.0,39.7391667,-104.98416670000002,10
10/11/2001 08:15,columbia,Mississippi,teardrop,300.0,31.2516667,-89.8375,10
10/11/2001 20:35,grass valley,California,triangle,60.0,39.2191667,-121.06,10
10/11/2001 23:49,lima,Ohio,teardrop,300.0,40.7425,-84.1052778,10
10/11/2002 06:17,springfield,Missouri,fireball,6.0,37.2152778,-93.2980556,10
10/11/2002 13:25,reno,Nevada,sphere,600.0,39.5297222,-119.81277779999999,10
10/11/2002 16:15,randolph,Massachusetts,cylinder,300.0,42.1625,-71.04166670000001,10
10/11/2002 20:36,dallas,Texas,fireball,3.0,32.783333299999995,-96.8,10
10/11/2003 00:20,austin,Minnesota,circle,5.0,43.6666667,-92.9744444,10
10/11/2003 01:29,new york city (manhattan),New York,egg,120.0,40.7141667,-74.0063889,10
10/11/2003 03:00,truckee,California,sphere,3.0,39.328055600000006,-120.18222220000001,10
10/11/2003 11:32,newaygo,Michigan,circle,40.0,43.4197222,-85.8,10
10/11/2003 19:05,placerville,California,light,600.0,38.7297222,-120.7975,10
10/11/2003 20:30,bloomington,Indiana,disk,180.0,39.1652778,-86.52638890000001,10
10/11/2003 22:40,independence,Missouri,chevron,600.0,39.091111100000006,-94.4152778,10
10/11/2004 01:00,honolulu,Hawaii,triangle,3.0,21.3069444,-157.8583333,10
10/11/2004 02:37,los angeles,California,rectangle,20.0,34.0522222,-118.2427778,10
10/11/2004 03:40,dallas,Oregon,light,20.0,44.919444399999996,-123.31583329999998,10
10/11/2004 05:00,san jose,California,light,15.0,37.3394444,-121.8938889,10
10/11/2004 11:00,salinas,California,formation,2700.0,36.6777778,-121.65444440000002,10
10/11/2004 14:00,arroyo grande,California,circle,60.0,35.1186111,-120.58972220000001,10
10/11/2004 18:00,fresno,California,rectangle,120.0,36.7477778,-119.77138889999999,10
10/11/2004 22:29,laredo,Texas,fireball,1351.0,27.506111100000002,-99.5072222,10
10/11/2004 23:00,lake worth,Florida,formation,7200.0,26.615555600000004,-80.05722220000001,10
10/11/2004 23:15,williamsville,New York,light,540.0,42.96388889999999,-78.7380556,10
10/11/2005 00:00,holiday,Florida,light,180.0,28.1875,-82.7397222,10
10/11/2005 03:00,eagan,Minnesota,circle,7200.0,44.8041667,-93.16666670000001,10
10/11/2005 16:36,lake point,Utah,light,720.0,40.680833299999996,-112.26222220000001,10
10/11/2005 18:45,peoria,Arizona,light,5400.0,33.580555600000004,-112.23666670000001,10
10/11/2005 19:00,buckeye,Arizona,formation,1800.0,33.3702778,-112.58305559999998,10
10/11/2005 19:00,casa grande,Arizona,light,1800.0,32.8794444,-111.75666670000001,10
10/11/2005 19:30,tempe,Arizona,triangle,3.0,33.4147222,-111.9086111,10
10/11/2005 19:45,mobile,Alabama,light,1800.0,30.6941667,-88.0430556,10
10/11/2005 21:00,little ferry,New Jersey,oval,300.0,40.8527778,-74.0425,10
10/11/2005 21:00,wall lake,Iowa,light,10.0,42.271111100000006,-95.0927778,10
10/11/2006 01:25,nashville,Tennessee,disk,13.0,36.165833299999996,-86.7844444,10
10/11/2006 19:00,monterey park,California,fireball,120.0,34.0625,-118.12194440000002,10
10/11/2006 19:30,two harbors,Minnesota,light,600.0,47.0227778,-91.6705556,10
10/11/2006 20:45,pensacola,Florida,diamond,3600.0,30.421111100000005,-87.2169444,10
10/11/2006 21:00,milton,Florida,light,900.0,30.6322222,-87.0397222,10
10/11/2006 21:32,la crescenta,California,circle,3.0,34.224166700000005,-118.23916670000001,10
10/11/2006 22:00,enid,Oklahoma,light,60.0,36.3955556,-97.8780556,10
10/11/2006 23:00,pampa,Texas,triangle,60.0,35.53611110000001,-100.9594444,10
10/11/2006 24:00,rome,New York,oval,120.0,43.2127778,-75.45611109999999,10
10/11/2007 04:40,melbourne,Kentucky,oval,360.0,39.0297222,-84.3663889,10
10/11/2007 10:10,carlton,Oregon,cylinder,900.0,45.294444399999996,-123.17527779999999,10
10/11/2007 16:00,clackamas,Oregon,circle,900.0,45.4077778,-122.56916670000001,10
10/11/2007 19:50,seattle,Washington,triangle,10.0,47.6063889,-122.33083329999998,10
10/11/2007 20:15,tega cay,South Carolina,light,1800.0,35.0241667,-81.0280556,10
10/11/2007 20:30,gulf shores,Alabama,disk,1800.0,30.245833299999997,-87.7008333,10
10/11/2008 04:30,brownsville,Texas,disk,3.0,25.9013889,-97.49722220000001,10
10/11/2008 06:00,concord,California,light,180.0,37.978055600000005,-122.03,10
10/11/2008 13:00,salisbury,North Carolina,sphere,20.0,35.6708333,-80.4744444,10
10/11/2008 19:00,bridgeport,Connecticut,circle,7200.0,41.1669444,-73.20527779999999,10
10/11/2008 19:00,dover,Maryland,sphere,7200.0,39.512222200000004,-76.7697222,10
10/11/2008 19:00,riverside,California,light,60.0,33.9533333,-117.39527779999999,10
10/11/2008 19:30,naples,Florida,triangle,30.0,26.1416667,-81.795,10
10/11/2008 20:30,centerville,Texas,light,900.0,31.2577778,-95.9780556,10
10/11/2008 22:20,albuquerque,New Mexico,fireball,120.0,35.084444399999995,-106.65055559999999,10
10/11/2008 22:30,los angeles,California,triangle,30.0,34.0522222,-118.2427778,10
10/11/2009 04:00,crisfield,Maryland,light,600.0,37.9833333,-75.85416670000001,10
10/11/2009 09:45,plymouth,Michigan,triangle,20.0,42.3713889,-83.47027779999999,10
10/11/2009 12:30,glendale,Arizona,egg,1200.0,33.538611100000004,-112.1852778,10
10/11/2009 18:00,louisville,Kentucky,disk,120.0,38.2541667,-85.7594444,10
10/11/2009 18:05,west palm beach,Florida,oval,3.0,26.705277799999998,-80.0366667,10
10/11/2009 19:00,north smithfield,Rhode Island,circle,15.0,41.966666700000005,-71.55,10
10/11/2009 19:50,putnamville,Indiana,flash,540.0,39.5741667,-86.86527779999999,10
10/11/2009 21:55,madison,Wisconsin,light,180.0,43.0730556,-89.4011111,10
10/11/2010 04:50,albany,New York,oval,120.0,42.6525,-73.7566667,10
10/11/2010 06:20,west palm beach,Florida,sphere,2400.0,26.705277799999998,-80.0366667,10
10/11/2010 19:40,cottage grove,Minnesota,light,240.0,44.8277778,-92.9436111,10
10/11/2010 20:50,glendora,California,circle,60.0,34.1361111,-117.86444440000001,10
10/11/2010 20:53,ramona,California,triangle,5.0,33.0416667,-116.8672222,10
10/11/2011 03:15,omaha,Illinois,chevron,120.0,37.8902778,-88.3030556,10
10/11/2011 15:00,cedar city,Utah,light,8.0,37.6775,-113.0611111,10
10/11/2011 19:40,des moines,Iowa,light,90.0,41.60055560000001,-93.60888890000001,10
10/11/2011 19:42,new bedford,Massachusetts,circle,1800.0,41.6361111,-70.93472220000001,10
10/11/2011 21:10,holden beach,North Carolina,circle,30.0,33.9133333,-78.3041667,10
10/11/2012 02:45,watchung (was my perspective),New Jersey,sphere,3600.0,40.6377778,-74.45138890000001,10
10/11/2012 04:00,tewksbury,Massachusetts,light,2.0,42.610555600000005,-71.23472220000001,10
10/11/2012 08:00,angola,Indiana,cigar,7200.0,41.6347222,-84.9994444,10
10/11/2012 19:30,arbutus,Maryland,light,300.0,39.2544444,-76.7002778,10
10/11/2012 19:30,forty fort,Pennsylvania,fireball,720.0,41.2788889,-75.87861109999999,10
10/11/2012 19:45,saratoga springs,New York,circle,300.0,43.0830556,-73.785,10
10/11/2012 20:00,nanticoke,Pennsylvania,diamond,60.0,41.2052778,-76.00527779999999,10
10/11/2012 20:30,las cruces,New Mexico,fireball,120.0,32.3122222,-106.7777778,10
10/11/2012 20:42,ravensdale,Washington,triangle,10.0,47.3525,-121.9825,10
10/11/2012 21:00,levittown,Pennsylvania,diamond,60.0,40.155,-74.8291667,10
10/11/2012 21:01,phoenix,Arizona,sphere,30.0,33.4483333,-112.07333329999999,10
10/11/2012 22:15,blue island,Illinois,circle,45.0,41.6572222,-87.68,10
10/11/2013 01:00,saginaw,Michigan,chevron,4.0,43.419444399999996,-83.9508333,10
10/11/2013 06:13,ankeny,Iowa,circle,120.0,41.7297222,-93.6055556,10
10/11/2013 09:05,palm beach gardens,Florida,light,15.0,26.823055600000004,-80.13888890000001,10
10/11/2013 16:35,kalamazoo,Michigan,fireball,600.0,42.2916667,-85.58722220000001,10
10/11/2013 19:50,essex junction,Vermont,light,60.0,44.49055560000001,-73.11138890000001,10
10/11/2013 20:00,cincinnati,Ohio,circle,300.0,39.161944399999996,-84.4569444,10
10/11/2013 20:00,cincinnati,Ohio,fireball,240.0,39.161944399999996,-84.4569444,10
10/11/2013 20:00,naples,Florida,light,7200.0,26.1416667,-81.795,10
10/11/2013 20:15,cincinnati,Ohio,fireball,60.0,39.161944399999996,-84.4569444,10
10/11/2013 20:15,union,Kentucky,fireball,300.0,38.9458333,-84.6805556,10
10/11/2013 20:20,hubbardston,Massachusetts,fireball,60.0,42.47361110000001,-72.0066667,10
10/11/2013 20:45,covington,Georgia,light,300.0,33.5966667,-83.86027779999999,10
10/11/2013 21:00,drexel,Ohio,sphere,180.0,39.7463889,-84.2866667,10
10/11/2013 21:00,fayetteville,New York,chevron,90.0,43.0297222,-76.0047222,10
10/11/2013 22:00,jupiter,Florida,light,900.0,26.933888899999996,-80.0944444,10
10/11/2013 22:00,melbourne,Florida,sphere,300.0,28.0833333,-80.6083333,10
10/11/2013 22:08,dresser,Wisconsin,sphere,60.0,45.35611110000001,-92.6333333,10
10/11/2013 22:10,lombard,Illinois,formation,60.0,41.88,-88.0077778,10
10/11/2013 23:00,north canton,Ohio,fireball,10.0,40.8758333,-81.4025,10
10/11/2013 23:15,pinckney,Michigan,fireball,2.0,42.4566667,-83.9463889,10
10/1/1950 11:00,pikeville,Kentucky,disk,600.0,37.4791667,-82.51888890000001,10
10/1/1952 12:00,kansas city,Missouri,disk,90.0,39.0997222,-94.5783333,10
10/1/1954 19:00,flatwoods,West Virginia,circle,60.0,38.7230556,-80.65,10
10/1/1956 19:00,newport,New Hampshire,rectangle,300.0,43.3652778,-72.17388890000001,10
10/1/1957 21:00,paterson,New Jersey,disk,10.0,40.9166667,-74.17222220000001,10
10/1/1961 03:00,toledo,Ohio,sphere,180.0,41.663888899999996,-83.5552778,10
10/1/1961 03:30,tulsa,Oklahoma,disk,120.0,36.1538889,-95.9925,10
10/1/1961 19:00,nashville,Tennessee,disk,1800.0,36.165833299999996,-86.7844444,10
10/1/1961 22:00,graham,North Carolina,triangle,30.0,36.0688889,-79.4008333,10
10/1/1965 14:00,colonial heights,Virginia,sphere,120.0,37.243888899999995,-77.4105556,10
10/1/1965 21:00,dushore,Pennsylvania,disk,300.0,41.5241667,-76.4011111,10
10/1/1966 20:00,buffalo,New York,light,240.0,42.8863889,-78.87861109999999,10
10/1/1966 22:00,anacortes,Washington,light,1200.0,48.5127778,-122.6113889,10
10/1/1966 23:00,corvallis,Oregon,disk,120.0,44.5647222,-123.26083329999999,10
10/1/1967 02:00,chaffee,New York,sphere,600.0,42.5680556,-78.47916670000001,10
10/1/1967 13:00,greenville,Illinois,circle,30.0,38.8922222,-89.41305559999999,10
10/1/1967 20:00,minneapolis,Minnesota,disk,10.0,44.98,-93.26361109999999,10
10/1/1968 00:00,boston,Massachusetts,cigar,1200.0,42.3583333,-71.0602778,10
10/1/1968 20:00,kennebunkport,Maine,circle,600.0,43.3616667,-70.4772222,10
10/1/1969 16:00,san francisco,California,oval,600.0,37.775,-122.41833329999999,10
10/1/1970 16:00,new york city (brooklyn),New York,disk,180.0,40.7141667,-74.0063889,10
10/1/1970 21:00,new york city (brooklyn),New York,disk,300.0,40.7141667,-74.0063889,10
10/1/1971 22:00,pasadena,California,disk,180.0,34.1477778,-118.1436111,10
10/1/1972 20:00,mosheim,Texas,disk,1800.0,31.626111100000003,-97.5997222,10
10/1/1972 23:00,monroe,Washington,rectangle,900.0,47.8555556,-121.9697222,10
10/1/1973 01:00,montezuma,Indiana,sphere,900.0,39.792777799999996,-87.3708333,10
10/1/1973 15:00,virginia beach,Virginia,disk,1800.0,36.8527778,-75.9783333,10
10/1/1973 20:00,bloomington,Indiana,light,1200.0,39.1652778,-86.52638890000001,10
10/1/1973 21:00,roseburg,Oregon,cylinder,7200.0,43.216666700000005,-123.34055559999999,10
10/1/1973 21:30,beatty,Nevada,disk,7200.0,36.9086111,-116.75833329999999,10
10/1/1973 21:30,hixson,Tennessee,oval,37800.0,35.140555600000006,-85.2327778,10
10/1/1973 22:45,valley city,Ohio,disk,300.0,41.237777799999996,-81.93166670000001,10
10/1/1974 18:00,weirton,West Virginia,sphere,240.0,40.4188889,-80.58972220000001,10
10/1/1974 21:00,chester,New Jersey,light,600.0,40.7841667,-74.69722220000001,10
10/1/1976 07:00,hartville,Ohio,disk,120.0,40.9636111,-81.33138890000001,10
10/1/1976 19:00,fairport,New York,disk,600.0,43.09861110000001,-77.4422222,10
10/1/1976 21:00,thonotosassa,Florida,disk,900.0,28.061111100000005,-82.3025,10
10/1/1978 00:00,windsor,North Carolina,cone,300.0,35.9983333,-76.9463889,10
10/1/1978 20:00,lecompte,Louisiana,disk,300.0,31.094444399999997,-92.4002778,10
10/1/1978 23:15,francesville,Indiana,cylinder,900.0,40.9852778,-86.8794444,10
10/1/1979 16:00,lomita,California,disk,1200.0,33.7922222,-118.31416670000002,10
10/1/1979 19:00,columbia,Maryland,rectangle,120.0,39.2402778,-76.83972220000001,10
10/1/1979 21:00,buffalo,New York,light,10.0,42.8863889,-78.87861109999999,10
10/1/1979 21:00,olympia,Washington,disk,7200.0,47.03805560000001,-122.89944440000001,10
10/1/1979 21:00,pittsburgh,Pennsylvania,disk,300.0,40.4405556,-79.9961111,10
10/1/1979 23:00,cranbury,New Jersey,light,240.0,40.3161111,-74.5141667,10
10/1/1980 20:00,mountainboro,Alabama,fireball,20.0,34.146944399999995,-86.1305556,10
10/1/1980 21:00,shirleysburg,Pennsylvania,formation,600.0,40.2977778,-77.8744444,10
10/1/1980 22:00,jersey city,New Jersey,cigar,180.0,40.728055600000005,-74.0780556,10
10/1/1981 20:00,hesperia,Michigan,oval,2400.0,43.5688889,-86.03944440000001,10
10/1/1982 22:10,swartz creek,Michigan,fireball,240.0,42.957222200000004,-83.8305556,10
10/1/1983 21:00,tarboro,North Carolina,disk,180.0,35.896666700000004,-77.53611109999999,10
10/1/1984 01:00,waldport,Oregon,light,600.0,44.4269444,-124.0675,10
10/1/1984 20:00,chatsworth,California,light,45.0,34.2572222,-118.60027779999999,10
10/1/1984 21:00,acton,Maine,triangle,180.0,43.5341667,-70.91027779999999,10
10/1/1985 00:00,brandon,Florida,triangle,900.0,27.9375,-82.28611109999999,10
10/1/1985 05:30,holton,Michigan,light,240.0,43.4133333,-86.0794444,10
10/1/1985 05:30,monroe,North Carolina,sphere,300.0,34.9852778,-80.5497222,10
10/1/1985 21:30,jefferson,Ohio,triangle,3600.0,41.7386111,-80.77,10
10/1/1985 22:45,lawrence,Kansas,sphere,300.0,38.9716667,-95.235,10
10/1/1986 01:00,klamath falls,Oregon,circle,2700.0,42.225,-121.78055559999999,10
10/1/1986 22:00,wheeling,West Virginia,light,10.0,40.063888899999995,-80.72111109999999,10
10/1/1987 20:00,roseburg (7 miles northwest of),Oregon,oval,1800.0,43.216666700000005,-123.34055559999999,10
10/1/1987 21:00,alstead,New Hampshire,fireball,1800.0,43.148888899999996,-72.36111109999999,10
10/1/1987 23:00,louisburg,North Carolina,triangle,180.0,36.0988889,-78.3013889,10
10/1/1989 16:00,mackay,Idaho,disk,180.0,43.9147222,-113.6125,10
10/1/1989 18:00,winchester (near),Kentucky,oval,300.0,37.99,-84.1797222,10
10/1/1989 20:00,jacksonville,Illinois,circle,300.0,39.7338889,-90.22888890000002,10
10/1/1989 20:00,pawling,New York,oval,300.0,41.561944399999994,-73.6030556,10
10/1/1989 21:30,carmichael,California,rectangle,10.0,38.6172222,-121.32722220000001,10
10/1/1989 21:30,orono,Maine,disk,20.0,44.883055600000006,-68.6725,10
10/1/1990 17:00,pateros,Washington,oval,300.0,48.0511111,-119.90222220000001,10
10/1/1990 20:00,san pedro,California,light,120.0,33.735833299999996,-118.2913889,10
10/1/1990 22:15,jamestown,New York,light,1200.0,42.0969444,-79.2355556,10
10/1/1991 17:00,wilmington,California,circle,900.0,33.78,-118.2616667,10
10/1/1991 18:00,maryville,Tennessee,cigar,300.0,35.7563889,-83.9705556,10
10/1/1991 18:30,little rock,Arkansas,triangle,300.0,34.7463889,-92.28944440000001,10
10/1/1991 20:30,mckenzie,Tennessee,disk,900.0,36.1325,-88.51861109999999,10
10/1/1991 21:30,las vegas,Nevada,cigar,5.0,36.175,-115.1363889,10
10/1/1992 17:30,dublin (near warner robins),Georgia,triangle,1200.0,32.5402778,-82.90388890000001,10
10/1/1992 18:00,springfield,Missouri,egg,90.0,37.2152778,-93.2980556,10
10/1/1993 02:00,tempe,Arizona,triangle,900.0,33.4147222,-111.9086111,10
10/1/1993 20:00,delaware,Ohio,light,7200.0,40.2986111,-83.0680556,10
10/1/1993 20:00,pryor,Montana,light,1800.0,45.4297222,-108.5325,10
10/1/1994 11:30,pawnee,Oklahoma,triangle,1200.0,36.3377778,-96.8036111,10
10/1/1994 13:13,new york city,New York,disk,15.0,40.7141667,-74.0063889,10
10/1/1994 20:00,santa barbara,California,triangle,3.0,34.4208333,-119.69722220000001,10
10/1/1994 21:00,warsaw,Missouri,cigar,600.0,38.243055600000005,-93.3816667,10
10/1/1994 23:00,las vegas,Nevada,circle,5.0,36.175,-115.1363889,10
10/1/1994 23:30,fredericksburg,Pennsylvania,disk,300.0,40.443611100000005,-76.4286111,10
10/1/1995 17:00,ashland,Kentucky,disk,300.0,38.478333299999996,-82.6380556,10
10/1/1995 18:30,williamsburg,Pennsylvania,rectangle,600.0,40.46194439999999,-78.2,10
10/1/1995 22:00,wantagh,New York,triangle,60.0,40.6836111,-73.5105556,10
10/1/1995 23:00,dover,New Hampshire,triangle,600.0,43.1977778,-70.8741667,10
10/1/1996 01:00,west houston (greenridge @ westiemer rd.; near galleria),Texas,formation,30.0,29.763055600000005,-95.3630556,10
10/1/1996 05:30,bainbridge,Ohio,triangle,180.0,39.2275,-83.2705556,10
10/1/1996 08:00,new york city (manhattan),New York,oval,300.0,40.7141667,-74.0063889,10
10/1/1996 17:00,cupertino,California,sphere,600.0,37.3230556,-122.0311111,10
10/1/1996 18:00,safford,Arizona,sphere,30.0,32.8338889,-109.70694440000001,10
10/1/1996 22:30,the woodlands,Texas,fireball,180.0,30.157777799999998,-95.4891667,10
10/1/1997 00:00,bemidji,Minnesota,triangle,600.0,47.47361110000001,-94.88,10
10/1/1997 01:20,garland,Texas,rectangle,40.0,32.9125,-96.63861109999999,10
10/1/1997 09:00,charlotte,North Carolina,cigar,120.0,35.226944399999994,-80.8433333,10
10/1/1997 19:00,green bay,Wisconsin,light,1200.0,44.5191667,-88.0197222,10
10/1/1997 19:00,pelzer,South Carolina,triangle,180.0,34.6422222,-82.45611109999999,10
10/1/1997 21:00,hyannis,Massachusetts,triangle,60.0,41.6527778,-70.2833333,10
10/1/1997 21:30,bourbonnais,Illinois,triangle,60.0,41.1416667,-87.875,10
10/1/1997 21:30,oakland,Oregon,light,60.0,43.4222222,-123.29722220000001,10
10/1/1997 22:00,summerville,South Carolina,triangle,1200.0,33.0183333,-80.1758333,10
10/1/1997 23:15,lakeland,Florida,light,60.0,28.039166700000003,-81.95,10
10/1/1998 00:00,logan,Utah,triangle,120.0,41.735555600000005,-111.8336111,10
10/1/1998 00:10,portland,Oregon,light,5.0,45.523611100000004,-122.675,10
10/1/1998 01:30,st. paul,Oregon,fireball,5.0,45.211388899999996,-122.97555559999999,10
10/1/1998 02:00,nisqually,Washington,disk,180.0,47.0566667,-122.7,10
10/1/1998 04:30,rio rancho,New Mexico,fireball,120.0,35.2333333,-106.6638889,10
10/1/1998 05:30,bayfield,Colorado,light,1800.0,37.22555560000001,-107.5975,10
10/1/1998 10:00,san francisco,California,sphere,420.0,37.775,-122.41833329999999,10
10/1/1998 13:30,elgin,Illinois,disk,1200.0,42.0372222,-88.28111109999999,10
10/1/1998 16:00,del mar,California,fireball,4.0,32.959444399999995,-117.26444440000002,10
10/1/1998 18:50,la jolla (over),California,fireball,7.0,32.8472222,-117.27333329999999,10
10/1/1998 18:56,manchester,New Hampshire,oval,120.0,42.9955556,-71.45527779999999,10
10/1/1998 21:00,clarinda,Iowa,triangle,60.0,40.741944399999994,-95.03805559999999,10
10/1/1998 21:15,ipava,Illinois,triangle,900.0,40.351388899999996,-90.3244444,10
10/1/1999 00:30,san antonio,Texas,fireball,30.0,29.423888899999998,-98.4933333,10
10/1/1999 01:00,oak brook,Illinois,light,60.0,41.8327778,-87.9288889,10
10/1/1999 04:00,portland,Oregon,light,25.0,45.523611100000004,-122.675,10
10/1/1999 04:40,elyria,Ohio,triangle,300.0,41.368333299999996,-82.1077778,10
10/1/1999 18:12,norman,Oklahoma,cigar,120.0,35.2225,-97.4391667,10
10/1/1999 19:00,las vegas,Nevada,light,15.0,36.175,-115.1363889,10
10/1/1999 22:05,independence,Missouri,chevron,15.0,39.091111100000006,-94.4152778,10
10/1/2000 01:00,vaughn,Washington,formation,540.0,47.34444439999999,-122.76194440000002,10
10/1/2000 01:30,sturgis,Michigan,disk,600.0,41.7991667,-85.4191667,10
10/1/2000 14:00,madera,California,light,120.0,36.961388899999996,-120.05972220000001,10
10/1/2000 18:00,stockton,California,sphere,180.0,37.9577778,-121.2897222,10
10/1/2000 19:40,chandler,Arizona,cigar,20.0,33.3061111,-111.84055559999999,10
10/1/2000 20:00,wheaton,Maryland,triangle,300.0,39.0397222,-77.0555556,10
10/1/2000 21:30,colorado springs,Colorado,light,300.0,38.8338889,-104.8208333,10
10/1/2000 21:30,maryville,Missouri,light,30.0,40.3461111,-94.87222220000001,10
10/1/2000 22:00,jackson,Tennessee,triangle,120.0,35.6144444,-88.81388890000001,10
10/1/2000 23:15,jones beach,New York,diamond,900.0,42.9047222,-76.3944444,10
10/1/2001 19:00,kansas city,Missouri,light,900.0,39.0997222,-94.5783333,10
10/1/2001 20:30,houghton lake,Michigan,triangle,300.0,44.3147222,-84.76472220000001,10
10/1/2001 20:35,greene,Maine,oval,10.0,44.1897222,-70.1408333,10
10/1/2001 22:00,lynden,Washington,light,30.0,48.9466667,-122.45083329999999,10
10/1/2001 22:30,albany,New York,flash,2.0,42.6525,-73.7566667,10
10/1/2002 00:30,courtland,Virginia,circle,1.0,36.716111100000006,-77.06833329999999,10
10/1/2002 03:00,oakland,California,oval,420.0,37.804444399999994,-122.2697222,10
10/1/2002 05:30,port townsend,Washington,fireball,10.0,48.1172222,-122.75916670000001,10
10/1/2002 05:30,snohomish,Washington,sphere,3.0,47.91305560000001,-122.09694440000001,10
10/1/2002 05:30,sumner,Washington,circle,330.0,47.2033333,-122.23916670000001,10
10/1/2002 05:35,pueblo,Colorado,triangle,15.0,38.2544444,-104.60861109999999,10
10/1/2002 05:42,seattle,Washington,teardrop,3.0,47.6063889,-122.33083329999998,10
10/1/2002 05:45,lynnwood,Washington,fireball,5.0,47.8211111,-122.3138889,10
10/1/2002 05:45,rainier,Washington,light,240.0,46.8883333,-122.68722220000001,10
10/1/2002 06:30,monroe,Wisconsin,light,1200.0,42.601111100000004,-89.6383333,10
10/1/2002 07:30,kingston,New York,cigar,600.0,41.9269444,-73.9977778,10
10/1/2002 09:00,germantown,Maryland,cigar,180.0,39.173055600000005,-77.2719444,10
10/1/2002 15:00,athol,Idaho,teardrop,300.0,47.9480556,-116.70694440000001,10
10/1/2002 16:00,grants,New Mexico,fireball,10.0,35.1472222,-107.85083329999999,10
10/1/2002 17:56,port hadlock,Washington,fireball,5.0,48.03194439999999,-122.75694440000001,10
10/1/2002 19:20,new york city (staten island),New York,egg,300.0,40.7141667,-74.0063889,10
10/1/2002 19:50,new york city (staten island),New York,light,900.0,40.7141667,-74.0063889,10
10/1/2003 00:00,saco,Maine,circle,120.0,43.5008333,-70.44333329999999,10
10/1/2003 00:20,redmond,Washington,light,2.0,47.6741667,-122.1202778,10
10/1/2003 21:00,bellevue,Washington,light,10.0,47.610555600000005,-122.19944440000002,10
10/1/2003 21:00,rye,Colorado,sphere,2.0,37.9236111,-104.9297222,10
10/1/2003 22:00,granville,Massachusetts,circle,5.0,42.0666667,-72.8619444,10
10/1/2003 23:00,circleville,Ohio,light,600.0,39.60055560000001,-82.9461111,10
10/1/2004 17:00,las vegas,Nevada,cylinder,2.0,36.175,-115.1363889,10
10/1/2004 20:00,albuquerque,New Mexico,oval,3600.0,35.084444399999995,-106.65055559999999,10
10/1/2004 20:27,richmond,Virginia,triangle,300.0,37.553611100000005,-77.46055559999999,10
10/1/2004 23:00,sidney,Michigan,sphere,14400.0,43.25,-85.13305559999999,10
10/1/2005 00:00,harrisburg,Missouri,light,2400.0,39.1269,-92.4399,10
10/1/2005 00:00,oak forest,Illinois,circle,3600.0,41.6027778,-87.7438889,10
10/1/2005 00:30,oak forest,Illinois,light,3600.0,41.6027778,-87.7438889,10
10/1/2005 00:40,orland park,Illinois,diamond,2700.0,41.6302778,-87.85388890000002,10
10/1/2005 00:53,tinley park,Illinois,circle,1200.0,41.5733333,-87.7844444,10
10/1/2005 00:57,orland park,Illinois,light,420.0,41.6302778,-87.85388890000002,10
10/1/2005 00:57,orland park,Illinois,light,6.0,41.6302778,-87.85388890000002,10
10/1/2005 01:00,midlothian,Illinois,light,1500.0,41.6252778,-87.7175,10
10/1/2005 01:00,oak forest,Illinois,light,600.0,41.6027778,-87.7438889,10
10/1/2005 01:00,tinley park,Illinois,circle,600.0,41.5733333,-87.7844444,10
10/1/2005 01:00,tinley park,Illinois,circle,600.0,41.5733333,-87.7844444,10
10/1/2005 01:00,tinley park,Illinois,formation,1200.0,41.5733333,-87.7844444,10
10/1/2005 01:00,tinley park,Illinois,triangle,1800.0,41.5733333,-87.7844444,10
10/1/2005 01:00,tinley park,Illinois,triangle,900.0,41.5733333,-87.7844444,10
10/1/2005 01:03,oak forest,Illinois,light,1200.0,41.6027778,-87.7438889,10
10/1/2005 01:08,evergreen park,Illinois,light,480.0,41.720555600000004,-87.7016667,10
10/1/2005 01:10,alsip,Illinois,light,480.0,41.6688889,-87.73861109999999,10
10/1/2005 01:10,crestwood,Illinois,light,300.0,41.66111110000001,-87.7525,10
10/1/2005 01:10,manhattan,Illinois,triangle,10.0,41.4225,-87.9858333,10
10/1/2005 01:10,oak forest,Illinois,cylinder,7200.0,41.6027778,-87.7438889,10
10/1/2005 01:10,oak forest,Illinois,light,1800.0,41.6027778,-87.7438889,10
10/1/2005 03:00,posen,Illinois,light,1200.0,41.631666700000004,-87.6813889,10
10/1/2005 06:30,greenup,Kentucky,circle,30.0,38.5730556,-82.83027779999999,10
10/1/2005 08:22,homestead,Florida,light,300.0,25.4683333,-80.4777778,10
10/1/2005 09:30,albuquerque,New Mexico,disk,600.0,35.084444399999995,-106.65055559999999,10
10/1/2005 12:00,lake worth,Florida,sphere,180.0,26.615555600000004,-80.05722220000001,10
10/1/2005 15:00,phoenix,Arizona,oval,180.0,33.4483333,-112.07333329999999,10
10/1/2005 17:00,los angeles,California,formation,1500.0,34.0522222,-118.2427778,10
10/1/2005 18:00,west palm beach,Florida,teardrop,60.0,26.705277799999998,-80.0366667,10
10/1/2005 19:58,rogers,Minnesota,triangle,1020.0,45.188888899999995,-93.55277779999999,10
10/1/2005 20:05,liberty hill,Texas,light,900.0,30.6647222,-97.92222220000001,10
10/1/2005 20:05,san jose,California,chevron,600.0,37.3394444,-121.8938889,10
10/1/2005 21:30,oklahoma city,Oklahoma,light,2700.0,35.4675,-97.51611109999999,10
10/1/2005 23:00,tinley park,Illinois,light,120.0,41.5733333,-87.7844444,10
10/1/2006 01:00,jones,Michigan,oval,5.0,41.9025,-85.7994444,10
10/1/2006 01:00,rio rancho,New Mexico,oval,3.0,35.2333333,-106.6638889,10
10/1/2006 01:30,irving,Texas,circle,2.0,32.813888899999995,-96.9486111,10
10/1/2006 12:30,new york city (bronx),New York,rectangle,120.0,40.7141667,-74.0063889,10
10/1/2006 14:00,mt. pleasant,South Carolina,circle,240.0,32.7938889,-79.86277779999999,10
10/1/2006 14:00,plainfield,Illinois,oval,300.0,41.6269444,-88.20388890000001,10
10/1/2006 15:05,thompson,Missouri,cigar,3600.0,39.1886111,-91.9827778,10
10/1/2006 17:00,onion creek,Washington,chevron,60.0,48.783888899999994,-117.81055559999999,10
10/1/2006 19:20,monkton,Maryland,oval,480.0,39.5786111,-76.61583329999999,10
10/1/2006 19:45,las vegas,Nevada,fireball,600.0,36.175,-115.1363889,10
10/1/2006 20:18,fall city,Washington,fireball,2.0,47.5675,-121.8875,10
10/1/2006 20:19,orchards,Washington,fireball,1.0,45.6666667,-122.55972220000001,10
10/1/2006 20:24,pullman,Washington,circle,1.0,46.7313889,-117.1786111,10
10/1/2006 20:34,seattle,Washington,teardrop,12.0,47.6063889,-122.33083329999998,10
10/1/2006 21:00,seattle,Washington,light,20.0,47.6063889,-122.33083329999998,10
10/1/2006 21:15,roseville,California,sphere,600.0,38.7522222,-121.28694440000001,10
10/1/2006 22:00,santa fe,New Mexico,fireball,20.0,35.686944399999994,-105.93722220000001,10
10/1/2006 22:18,winslow,Arizona,fireball,15.0,35.0241667,-110.69666670000001,10
10/1/2006 23:00,silver city,New Mexico,light,180.0,32.77,-108.27972220000001,10
10/1/2006 23:00,wide ruins,Arizona,cylinder,120.0,35.419444399999996,-109.49583329999999,10
10/1/2006 23:15,boulder,Colorado,oval,30.0,40.015,-105.27,10
10/1/2006 23:15,canon city,Colorado,light,240.0,38.4,-105.21666670000002,10
10/1/2006 23:15,denver,Colorado,circle,30.0,39.7391667,-104.98416670000002,10
10/1/2006 23:15,hartsel,Colorado,fireball,60.0,39.021666700000004,-105.7952778,10
10/1/2006 23:15,mccoy,Colorado,light,75.0,39.9161111,-106.725,10
10/1/2006 23:15,pueblo west,Colorado,sphere,10.0,38.35,-104.7222222,10
10/1/2006 23:15,santa fe,New Mexico,light,45.0,35.686944399999994,-105.93722220000001,10
10/1/2006 23:15,taos,New Mexico,formation,150.0,36.4072222,-105.5725,10
10/1/2006 23:17,cascade,Colorado,circle,15.0,38.896666700000004,-104.97166670000001,10
10/1/2006 23:20,boulder (foothills of),Colorado,sphere,6.0,40.015,-105.27,10
10/1/2006 23:20,cripple creek,Colorado,fireball,15.0,38.7466667,-105.17777779999999,10
10/1/2006 23:20,raton,New Mexico,formation,30.0,36.9033333,-104.43861109999999,10
10/1/2006 23:20,raton,New Mexico,formation,60.0,36.9033333,-104.43861109999999,10
10/1/2006 23:20,sedalia,Colorado,formation,30.0,39.436944399999994,-104.95916670000001,10
10/1/2006 23:20,silverthorne,Colorado,light,10.0,39.6375,-106.0613889,10
10/1/2006 23:30,pueblo west,Colorado,light,300.0,38.35,-104.7222222,10
10/1/2006 23:32,farmington,New Mexico,light,14.0,36.728055600000005,-108.21805559999999,10
10/1/2006 23:40,san antonio,New Mexico,circle,20.0,33.917777799999996,-106.86527779999999,10
10/1/2007 00:00,escondido,California,diamond,120.0,33.1191667,-117.08555559999999,10
10/1/2007 00:00,los angeles,California,flash,900.0,34.0522222,-118.2427778,10
10/1/2007 00:02,dayton,Ohio,oval,5.0,39.758888899999995,-84.1916667,10
10/1/2007 09:50,charlotte,North Carolina,light,1200.0,35.226944399999994,-80.8433333,10
10/1/2007 13:00,litchfield,Illinois,oval,2.0,39.175277799999996,-89.6541667,10
10/1/2007 17:10,granville,Ohio,sphere,120.0,40.0680556,-82.5197222,10
10/1/2007 19:00,beulaville,North Carolina,triangle,5.0,34.9236111,-77.7741667,10
10/1/2007 20:00,ewa beach,Hawaii,light,600.0,21.3155556,-158.00722219999997,10
10/1/2007 20:00,tryon,North Carolina,light,10.0,35.2080556,-82.23861109999999,10
10/1/2007 21:00,sanford,Florida,triangle,120.0,28.8002778,-81.2733333,10
10/1/2007 22:30,dublin,California,flash,2.0,37.7022222,-121.93472220000001,10
10/1/2008 00:00,conway,Arkansas,triangle,600.0,35.0886111,-92.4419444,10
10/1/2008 01:00,bryan,Ohio,cylinder,120.0,41.4747222,-84.5525,10
10/1/2008 01:00,merrick,New York,disk,5.0,40.6627778,-73.5519444,10
10/1/2008 05:00,huntington,West Virginia,cylinder,600.0,38.4191667,-82.4452778,10
10/1/2008 06:20,lynchburg,Virginia,light,30.0,37.413611100000004,-79.1425,10
10/1/2008 09:00,lanagan,Missouri,light,900.0,36.60805560000001,-94.4475,10
10/1/2008 09:45,dallas,Texas,oval,300.0,32.783333299999995,-96.8,10
10/1/2008 11:00,pell city,Alabama,cigar,300.0,33.586111100000004,-86.28611109999999,10
10/1/2008 19:00,warwick,Rhode Island,circle,600.0,41.7,-71.41666670000001,10
10/1/2008 19:12,bonham,Texas,egg,300.0,33.5772222,-96.1780556,10
10/1/2008 20:00,cabazon,California,light,1200.0,33.9175,-116.78638889999999,10
10/1/2008 20:00,marysville,Washington,circle,1800.0,48.0519444,-122.1758333,10
10/1/2008 20:00,wilson,North Carolina,circle,600.0,35.7211111,-77.9158333,10
10/1/2008 20:03,idaho falls,Idaho,light,15.0,43.466666700000005,-112.03333329999998,10
10/1/2008 20:45,leavenworth,Washington,light,120.0,47.596388899999994,-120.66027779999999,10
10/1/2008 20:45,renton,Washington,light,600.0,47.48305560000001,-122.21583329999999,10
10/1/2008 21:00,wellington,Alabama,light,120.0,33.8225,-85.89277779999999,10
10/1/2008 22:00,garrett,Indiana,triangle,4.0,41.349444399999996,-85.1355556,10
10/1/2008 22:30,arlington,Texas,sphere,600.0,32.735555600000005,-97.1077778,10
10/1/2008 22:55,kingsport,Tennessee,triangle,3.0,36.548333299999996,-82.5619444,10
10/1/2009 04:30,hogansville,Georgia,disk,10.0,33.173055600000005,-84.915,10
10/1/2009 08:00,pawtucket,Rhode Island,cylinder,600.0,41.8786111,-71.38305559999999,10
10/1/2009 09:00,canton,Michigan,triangle,3600.0,42.3086111,-83.48222220000001,10
10/1/2009 15:38,whitefield,Oklahoma,light,2.0,35.2525,-95.2372222,10
10/1/2009 18:00,memphis,Tennessee,oval,300.0,35.14944439999999,-90.04888890000001,10
10/1/2009 20:00,providence,Rhode Island,disk,300.0,41.8238889,-71.4133333,10
10/1/2009 20:30,beaver,Ohio,light,10800.0,39.03055560000001,-82.8244444,10
10/1/2009 22:30,belmont,Mississippi,triangle,120.0,34.5097222,-88.2091667,10
10/1/2009 23:00,belleview,Florida,circle,600.0,29.055,-82.0625,10
10/1/2009 23:00,fairfield,Connecticut,light,20.0,41.1411111,-73.2641667,10
10/1/2010 06:25,aripeka,Florida,light,8.0,28.431944399999995,-82.66444440000001,10
10/1/2010 09:30,spotsylvania,Virginia,circle,1800.0,38.2008333,-77.5894444,10
10/1/2010 12:16,waxahachie,Texas,disk,1.0,32.3863889,-96.8480556,10
10/1/2010 18:30,strasburg,Virginia,cigar,300.0,38.9886111,-78.35888890000001,10
10/1/2010 19:45,fayetteville,North Carolina,light,300.0,35.0525,-78.87861109999999,10
10/1/2010 20:45,brunswick,Ohio,triangle,600.0,41.2380556,-81.8419444,10
10/1/2010 21:00,arlington,Washington,oval,300.0,48.1988889,-122.1238889,10
10/1/2010 23:00,rock spring,Georgia,light,300.0,34.8241667,-85.2427778,10
10/1/2011 06:00,san benito,Texas,triangle,10.0,26.132222199999998,-97.63083329999999,10
10/1/2011 13:00,clinton,Mississippi,circle,300.0,32.3413889,-90.32166670000001,10
10/1/2011 16:00,goshen,California,oval,60.0,36.351111100000004,-119.41916670000002,10
10/1/2011 20:00,wilmington,North Carolina,triangle,300.0,34.22555560000001,-77.945,10
10/1/2011 20:15,cincinnati,Ohio,sphere,900.0,39.161944399999996,-84.4569444,10
10/1/2011 20:30,palatine,Illinois,light,90.0,42.1102778,-88.0341667,10
10/1/2011 21:00,hamburg,California,light,300.0,41.783055600000004,-123.05916670000002,10
10/1/2011 21:20,carlsbad,California,fireball,10.0,33.158055600000004,-117.3497222,10
10/1/2011 21:43,kansas city,Missouri,fireball,45.0,39.0997222,-94.5783333,10
10/1/2011 21:43,kansas city,Missouri,fireball,60.0,39.0997222,-94.5783333,10
10/1/2011 21:50,tenino,Washington,light,180.0,46.856944399999996,-122.85166670000001,10
10/1/2011 22:00,mccomb,Mississippi,rectangle,10.0,31.243611100000003,-90.4530556,10
10/1/2011 23:11,conyers,Georgia,light,3600.0,33.6675,-84.01777779999999,10
10/1/2011 23:57,homestead,Florida,formation,35.0,25.4683333,-80.4777778,10
10/1/2012 01:50,colorado springs,Colorado,light,9.0,38.8338889,-104.8208333,10
10/1/2012 02:00,surprise,Arizona,light,9.0,33.6305556,-112.3325,10
10/1/2012 06:30,sarasota,Florida,formation,10.0,27.336111100000004,-82.5308333,10
10/1/2012 17:30,port hueneme,California,light,1800.0,34.1477778,-119.19416670000001,10
10/1/2012 19:30,hinsdale,Illinois,fireball,180.0,41.8008333,-87.9369444,10
10/1/2012 20:00,eugene,Oregon,light,180.0,44.0522222,-123.08555559999999,10
10/1/2012 20:00,fontana,California,fireball,900.0,34.0922222,-117.43416670000002,10
10/1/2012 20:10,capitola,California,light,60.0,36.9752778,-121.95222220000001,10
10/1/2012 22:30,sauk centre,Minnesota,triangle,2700.0,45.7375,-94.95222220000001,10
10/1/2012 23:00,huntington,Indiana,fireball,180.0,40.883055600000006,-85.4975,10
10/1/2012 24:00,novi,Michigan,triangle,300.0,42.4805556,-83.47555559999999,10
10/1/2013 03:00,colorado springs,Colorado,triangle,5400.0,38.8338889,-104.8208333,10
10/1/2013 06:35,bel air,Maryland,flash,4.0,39.5358333,-76.34861109999999,10
10/1/2013 07:40,bakersfield,California,circle,30.0,35.3733333,-119.01777779999999,10
10/1/2013 09:43,muncie,Indiana,triangle,7200.0,40.1933333,-85.38638890000001,10
10/1/2013 18:30,boulder,Colorado,light,240.0,40.015,-105.27,10
10/1/2013 19:20,webster,New York,sphere,1800.0,43.2122222,-77.4302778,10
10/1/2013 19:25,southwest ranches,Florida,light,300.0,26.0583333,-80.3375,10
10/1/2013 20:00,tampa,Florida,light,3600.0,27.947222200000002,-82.45861109999998,10
10/1/2013 21:30,cumming,Georgia,fireball,1200.0,34.207222200000004,-84.14027779999999,10
10/1/2013 21:40,sneedville,Tennessee,circle,90.0,36.5297222,-83.2175,10
10/1/2013 22:30,waterloo,Iowa,triangle,60.0,42.4927778,-92.3427778,10
10/1/2013 22:45,middle island (long island),New York,fireball,1200.0,40.8841667,-72.93777779999999,10
10/12/1965 12:00,pittsburgh,Pennsylvania,circle,120.0,40.4405556,-79.9961111,10
10/12/1965 13:00,pittsburgh,Pennsylvania,disk,60.0,40.4405556,-79.9961111,10
10/12/1971 22:00,menands (albany),New York,chevron,180.0,42.6919444,-73.725,10
10/12/1973 19:00,birmingham (just south of),Alabama,disk,900.0,33.5205556,-86.8025,10
10/12/1976 23:00,emporia,Kansas,disk,300.0,38.4038889,-96.1813889,10
10/12/1978 21:00,dyersburg,Tennessee,triangle,7200.0,36.0344444,-89.3855556,10
10/12/1978 23:00,alpine,Arizona,circle,7200.0,33.8480556,-109.1425,10
10/12/1979 00:45,barnegat,New Jersey,rectangle,900.0,39.7530556,-74.2233333,10
10/12/1982 05:30,pearlington,Mississippi,light,20.0,30.246388899999996,-89.61111109999999,10
10/12/1982 05:30,pearlington,Mississippi,light,29.0,30.246388899999996,-89.61111109999999,10
10/12/1985 23:45,swansboro,North Carolina,disk,300.0,34.6875,-77.1194444,10
10/12/1994 15:00,monticello,Kentucky,chevron,120.0,36.8297222,-84.8491667,10
10/12/1994 21:00,okeechobee,Florida,disk,120.0,27.243611100000003,-80.83,10
10/12/1995 20:30,pueblo,Colorado,triangle,10.0,38.2544444,-104.60861109999999,10
10/12/1997 18:30,huntington beach,California,sphere,20.0,33.660277799999996,-117.99833329999998,10
10/12/1997 21:51,kenner (34th st.),Louisiana,disk,1260.0,29.993888899999998,-90.2416667,10
10/12/1997 22:30,chicago,Illinois,light,300.0,41.85,-87.65,10
10/12/1998 04:00,lincoln,Nebraska,egg,11.0,40.8,-96.66666670000001,10
10/12/1998 07:00,murray,Utah,light,300.0,40.6669444,-111.88722220000001,10
10/12/1998 19:00,asheville,North Carolina,fireball,1800.0,35.6008333,-82.5541667,10
10/12/1998 19:00,asheville,North Carolina,light,2400.0,35.6008333,-82.5541667,10
10/12/1999 01:30,missoula,Montana,triangle,60.0,46.8722222,-113.99305559999999,10
10/12/1999 05:11,albany,Oregon,fireball,120.0,44.6366667,-123.10472220000001,10
10/12/1999 09:00,miami,Oklahoma,oval,120.0,36.874444399999994,-94.8772222,10
10/12/1999 12:07,breezewood,Pennsylvania,fireball,3600.0,39.9991667,-78.2388889,10
10/12/1999 17:15,scottsdale,Arizona,cigar,600.0,33.5091667,-111.89833329999999,10
10/12/1999 20:00,palominas (near ft. huachuca),Arizona,triangle,600.0,31.3797222,-110.1177778,10
10/12/1999 21:35,port townsend,Washington,triangle,300.0,48.1172222,-122.75916670000001,10
10/12/1999 22:00,phoenix,Arizona,fireball,600.0,33.4483333,-112.07333329999999,10
10/12/1999 23:00,little falls (north of),Minnesota,formation,3600.0,45.976388899999996,-94.3622222,10
10/12/2000 15:00,mountain city,Tennessee,disk,30.0,36.474444399999996,-81.805,10
10/12/2000 17:40,new haven,West Virginia,disk,6.0,38.986388899999994,-81.97361109999999,10
10/12/2000 18:00,belmont,Vermont,cigar,600.0,43.415555600000005,-72.8227778,10
10/12/2000 18:59,gilbert,Arizona,oval,1080.0,33.3527778,-111.78833329999999,10
10/12/2000 19:30,tulsa,Oklahoma,fireball,60.0,36.1538889,-95.9925,10
10/12/2000 21:30,buckeye,Arizona,light,300.0,33.3702778,-112.58305559999998,10
10/12/2001 01:30,miami (kendall),Florida,circle,1200.0,25.7738889,-80.1938889,10
10/12/2001 05:30,miami,Florida,disk,1200.0,25.7738889,-80.1938889,10
10/12/2001 15:40,denver,Colorado,disk,120.0,39.7391667,-104.98416670000002,10
10/12/2001 18:30,phoenix,Arizona,formation,120.0,33.4483333,-112.07333329999999,10
10/12/2002 11:00,san leandro,California,disk,600.0,37.725,-122.155,10
10/12/2002 11:00,winfield,Texas,circle,600.0,33.1672222,-95.1116667,10
10/12/2002 15:49,tinton falls,New Jersey,light,900.0,40.3041667,-74.1008333,10
10/12/2002 18:00,prescott,Arizona,formation,600.0,34.54,-112.4677778,10
10/12/2002 19:10,renton,Washington,disk,3.0,47.48305560000001,-122.21583329999999,10
10/12/2002 19:30,rose lake,Idaho,light,600.0,47.538888899999996,-116.47083329999998,10
10/12/2002 20:00,paris,Texas,triangle,300.0,33.6608333,-95.5552778,10
10/12/2002 20:10,boca raton,Florida,light,300.0,26.358333299999998,-80.08333329999999,10
10/12/2002 20:45,paris,Texas,triangle,300.0,33.6608333,-95.5552778,10
10/12/2003 02:00,antioch,California,circle,1500.0,38.005,-121.8047222,10
10/12/2003 13:08,auburn,Pennsylvania,fireball,600.0,40.5983333,-76.09361109999999,10
10/12/2003 22:20,dallas,Texas,sphere,300.0,32.783333299999995,-96.8,10
10/12/2004 00:00,fort morgan,Colorado,sphere,1500.0,40.2502778,-103.7994444,10
10/12/2004 00:00,tacoma,Washington,formation,4.0,47.2530556,-122.44305559999998,10
10/12/2004 07:37,rockville,Maryland,light,10.0,39.0838889,-77.1530556,10
10/12/2004 12:55,utica,New York,light,45.0,43.1008333,-75.2330556,10
10/12/2004 14:00,hayward,California,sphere,2700.0,37.6688889,-122.0797222,10
10/12/2004 20:01,miami,Florida,light,60.0,25.7738889,-80.1938889,10
10/12/2004 20:27,north port,Florida,light,75.0,27.043888899999995,-82.23611109999999,10
10/12/2004 21:10,belfair,Washington,fireball,60.0,47.4508333,-122.8261111,10
10/12/2004 22:30,rocklin,California,triangle,3600.0,38.790833299999996,-121.23472220000001,10
10/12/2005 00:00,bakersfield,California,fireball,7200.0,35.3733333,-119.01777779999999,10
10/12/2005 01:15,bossier city,Louisiana,oval,30.0,32.5158333,-93.7319444,10
10/12/2005 02:05,longwood,Florida,formation,20.0,28.7027778,-81.3386111,10
10/12/2005 04:00,farmland,Indiana,light,600.0,40.1877778,-85.1275,10
10/12/2005 17:00,noblesville,Indiana,light,10.0,40.04555560000001,-86.0086111,10
10/12/2005 20:02,phoenix,Arizona,light,300.0,33.4483333,-112.07333329999999,10
10/12/2005 20:05,mesa,Arizona,sphere,180.0,33.4222222,-111.8219444,10
10/12/2005 20:32,peoria,Arizona,triangle,240.0,33.580555600000004,-112.23666670000001,10
10/12/2006 17:30,seekonk,Massachusetts,formation,300.0,41.8083333,-71.3375,10
10/12/2006 17:50,altamonte springs,Florida,sphere,30.0,28.6608333,-81.36583329999999,10
10/12/2006 20:00,pontiac,Michigan,light,120.0,42.6388889,-83.2911111,10
10/12/2006 22:30,boulder,Colorado,triangle,10.0,40.015,-105.27,10
10/12/2007 00:20,ogden,Utah,triangle,10.0,41.2230556,-111.97305559999998,10
10/12/2007 01:45,sedalia,Missouri,formation,15.0,38.70444439999999,-93.2280556,10
10/12/2007 05:30,new york city,New York,light,1800.0,40.7141667,-74.0063889,10
10/12/2007 08:15,arcadia,Florida,formation,65.0,27.215555600000005,-81.85861109999999,10
10/12/2007 14:35,fort washington,Pennsylvania,sphere,300.0,40.1416667,-75.2094444,10
10/12/2007 21:30,appleton,Wisconsin,circle,300.0,44.2619444,-88.4152778,10
10/12/2007 22:00,irvine,California,circle,600.0,33.669444399999996,-117.82222220000001,10
10/12/2007 22:00,york,Pennsylvania,oval,3300.0,39.9625,-76.7280556,10
10/12/2007 23:30,dingmans ferry,Pennsylvania,triangle,3.0,41.22,-74.8716667,10
10/12/2008 05:20,islip (central),New York,light,35.0,40.7297222,-73.2108333,10
10/12/2008 08:00,russellton,Pennsylvania,cigar,50.0,40.611388899999994,-79.83722220000001,10
10/12/2008 09:00,reading,Pennsylvania,diamond,300.0,40.335555600000006,-75.9272222,10
10/12/2008 09:00,rio rancho,New Mexico,disk,90.0,35.2333333,-106.6638889,10
10/12/2008 15:10,nicholasville,Kentucky,circle,900.0,37.8805556,-84.5730556,10
10/12/2008 19:20,tacoma,Washington,light,420.0,47.2530556,-122.44305559999998,10
10/12/2008 20:00,mckinney,Texas,light,300.0,33.1975,-96.615,10
10/12/2008 23:00,gainesville,Virginia,light,300.0,38.79555560000001,-77.6141667,10
10/12/2008 23:00,wayne,Michigan,circle,45.0,42.281388899999996,-83.38638890000001,10
10/12/2009 11:00,mcdonough,Georgia,formation,900.0,33.4472222,-84.1469444,10
10/12/2009 20:00,yakima,Washington,light,300.0,46.6022222,-120.5047222,10
10/12/2010 00:56,cross roads,Texas,triangle,180.0,31.0747222,-96.1425,10
10/12/2010 06:00,tomball,Texas,cigar,20.0,30.096944399999995,-95.61583329999999,10
10/12/2010 06:07,sioux falls,South Dakota,light,600.0,43.55,-96.7,10
10/12/2010 12:30,waco,Texas,oval,300.0,31.5491667,-97.1463889,10
10/12/2010 16:00,hillsdale,Michigan,circle,120.0,41.92,-84.6305556,10
10/12/2010 19:00,arlington,Virginia,sphere,45.0,38.8902778,-77.0844444,10
10/12/2010 19:10,dallas,Texas,cigar,300.0,32.783333299999995,-96.8,10
10/12/2010 19:13,daphne,Alabama,chevron,45.0,30.6033333,-87.90361109999999,10
10/12/2010 20:15,bridgeton,Missouri,rectangle,120.0,38.76694439999999,-90.4113889,10
10/12/2010 20:30,boston,Massachusetts,disk,300.0,42.3583333,-71.0602778,10
10/12/2010 21:00,lufkin,Texas,chevron,30.0,31.338055600000004,-94.72888890000002,10
10/12/2010 22:15,pinellas park,Florida,circle,1800.0,27.8425,-82.69972220000001,10
10/12/2010 22:30,waterloo,Iowa,light,180.0,42.4927778,-92.3427778,10
10/12/2010 22:45,knoxville,Tennessee,light,240.0,35.960555600000006,-83.9208333,10
10/12/2011 19:40,whitesburg,Tennessee,circle,30.0,36.271666700000004,-83.14,10
10/12/2011 20:00,ocean isle beach,North Carolina,light,1200.0,33.8941667,-78.4269444,10
10/12/2011 20:00,st. george,Utah,disk,7.0,37.1041667,-113.58333329999999,10
10/12/2011 21:00,san antonio,Texas,triangle,900.0,29.423888899999998,-98.4933333,10
10/12/2011 21:00,zortman,Montana,light,1800.0,47.917777799999996,-108.52555559999999,10
10/12/2012 00:00,titusville,Florida,fireball,30.0,28.611944399999995,-80.8077778,10
10/12/2012 06:30,pittsburgh,Pennsylvania,rectangle,3.0,40.4405556,-79.9961111,10
10/12/2012 08:25,bessemer,Pennsylvania,circle,300.0,40.9747222,-80.4938889,10
10/12/2012 14:30,big rock,Tennessee,sphere,1200.0,36.580555600000004,-87.76,10
10/12/2012 15:00,clarksville,Tennessee,circle,120.0,36.5297222,-87.3594444,10
10/12/2012 17:00,ashland,Oregon,cylinder,40.0,42.1947222,-122.70833329999999,10
10/12/2012 17:45,waynesburg (north of),Pennsylvania,light,60.0,39.8963889,-80.17944440000001,10
10/12/2012 18:00,salem,Oregon,oval,600.0,44.9430556,-123.0338889,10
10/12/2012 19:00,buckeye,Arizona,light,3600.0,33.3702778,-112.58305559999998,10
10/12/2012 19:00,lake worth,Florida,chevron,60.0,26.615555600000004,-80.05722220000001,10
10/12/2012 19:00,lake worth,Florida,cylinder,60.0,26.615555600000004,-80.05722220000001,10
10/12/2012 19:10,hadlyme,Connecticut,light,300.0,41.4202778,-72.4069444,10
10/12/2012 19:30,tucson,Arizona,chevron,6.0,32.2216667,-110.9258333,10
10/12/2012 20:00,cumberland,Maryland,light,10.0,39.6527778,-78.7627778,10
10/12/2012 20:00,waukesha,Wisconsin,circle,900.0,43.0116667,-88.23138890000001,10
10/12/2012 20:30,oklahoma city,Oklahoma,sphere,300.0,35.4675,-97.51611109999999,10
10/12/2012 20:30,wellington,Florida,fireball,600.0,26.6583333,-80.2416667,10
10/12/2012 20:45,grayling,Michigan,light,600.0,44.6613889,-84.71472220000001,10
10/12/2012 21:05,anchorage,Alaska,fireball,10.0,61.2180556,-149.90027780000003,10
10/12/2012 22:00,marlton,New Jersey,circle,1800.0,39.8911111,-74.92222220000001,10
10/12/2012 22:00,ridley park,Pennsylvania,light,15.0,39.881111100000005,-75.3241667,10
10/12/2012 23:15,wolcott,Connecticut,circle,300.0,41.6022222,-72.9872222,10
10/12/2013 04:30,cambridge,New York,light,7200.0,43.0280556,-73.3816667,10
10/12/2013 07:17,strongsville,Ohio,triangle,300.0,41.3144444,-81.8358333,10
10/12/2013 07:45,festus,Missouri,fireball,60.0,38.220555600000004,-90.39583329999999,10
10/12/2013 13:00,owego,New York,disk,120.0,42.103333299999996,-76.2625,10
10/12/2013 15:00,st. louis,Missouri,formation,900.0,38.6272222,-90.1977778,10
10/12/2013 18:30,clarkston,Michigan,triangle,1800.0,42.735833299999996,-83.41888890000001,10
10/12/2013 20:00,lima,Ohio,formation,600.0,40.7425,-84.1052778,10
10/12/2013 20:00,north judson,Indiana,light,30.0,41.215,-86.7758333,10
10/12/2013 20:00,suffolk,Virginia,triangle,900.0,36.728055600000005,-76.5838889,10
10/12/2013 20:20,morganton,North Carolina,light,300.0,35.7452778,-81.685,10
10/12/2013 20:40,hamilton,Ohio,formation,1200.0,39.39944439999999,-84.56138890000001,10
10/12/2013 20:55,austin,Texas,triangle,60.0,30.266944399999996,-97.7427778,10
10/12/2013 21:00,franklin,Ohio,light,600.0,39.5588889,-84.3041667,10
10/12/2013 21:00,hamilton,Ohio,fireball,120.0,39.39944439999999,-84.56138890000001,10
10/12/2013 21:00,west chester,Ohio,light,60.0,39.0875,-81.92277779999999,10
10/12/2013 21:15,miamisburg,Ohio,fireball,600.0,39.6427778,-84.2866667,10
10/12/2013 21:15,peoria,Illinois,formation,180.0,40.693611100000005,-89.58888890000001,10
10/12/2013 22:00,aspen (~2 hrs. w of; driving),Colorado,formation,30.0,39.1911111,-106.81694440000001,10
10/12/2013 22:00,grand junction (east of; on i-70),Colorado,light,15.0,39.063888899999995,-108.55,10
10/12/2013 22:05,hilliard,Ohio,diamond,180.0,40.033333299999995,-83.1583333,10
10/12/2013 22:26,hiawassee,Georgia,circle,900.0,34.9491667,-83.7575,10
10/12/2013 23:00,anderson,South Carolina,circle,20.0,34.5033333,-82.6502778,10
10/12/2013 23:28,orangevale,California,fireball,600.0,38.678611100000005,-121.2247222,10
10/12/2013 24:00,cincinnati,Ohio,fireball,300.0,39.161944399999996,-84.4569444,10
10/12/2013 24:00,orangevale (sacramento),California,sphere,60.0,38.678611100000005,-121.2247222,10
10/13/1966 07:00,mission,Texas,disk,5.0,26.215555600000005,-98.325,10
10/13/1969 21:15,millington,Tennessee,formation,259200.0,35.3413889,-89.8972222,10
10/13/1969 22:00,memphis,Tennessee,formation,3600.0,35.14944439999999,-90.04888890000001,10
10/13/1971 21:00,bristol,Connecticut,disk,600.0,41.6716667,-72.94972220000001,10
10/13/1973 18:00,weldon,North Carolina,oval,300.0,36.4269444,-77.5958333,10
10/13/1990 16:00,rising sun,Maryland,sphere,600.0,39.6977778,-76.0630556,10
10/13/1994 19:30,farmington,Missouri,cylinder,120.0,37.7808333,-90.4216667,10
10/13/1995 06:30,new york city,New York,light,60.0,40.7141667,-74.0063889,10
10/13/1996 03:19,reno,Nevada,triangle,2400.0,39.5297222,-119.81277779999999,10
10/13/1996 06:00,gainesville,Florida,circle,2400.0,29.651388899999997,-82.325,10
10/13/1996 15:00,astoria (outside of),Oregon,circle,30.0,46.188055600000006,-123.83,10
10/13/1996 19:47,odessa,Texas,diamond,600.0,31.845555600000004,-102.3672222,10
10/13/1996 20:00,encino,California,triangle,3.0,34.1591667,-118.50027779999999,10
10/13/1997 22:15,hollister,California,light,120.0,36.8525,-121.40055559999999,10
10/13/1999 09:45,santa fe,New Mexico,disk,25.0,35.686944399999994,-105.93722220000001,10
10/13/1999 17:20,florence,Kentucky,triangle,600.0,38.9988889,-84.6266667,10
10/13/1999 19:45,boscobel,Wisconsin,light,300.0,43.13444439999999,-90.70527779999999,10
10/13/1999 22:00,lansing,Michigan,circle,600.0,42.7325,-84.5555556,10
10/13/2000 01:00,forest hills,New York,circle,60.0,40.716111100000006,-73.85055559999999,10
10/13/2000 06:45,tulsa,Oklahoma,fireball,60.0,36.1538889,-95.9925,10
10/13/2000 08:00,newton,Kansas,fireball,90.0,38.0466667,-97.3447222,10
10/13/2000 18:45,knoxville,Tennessee,cylinder,120.0,35.960555600000006,-83.9208333,10
10/13/2000 18:45,louisville,Kentucky,triangle,600.0,38.2541667,-85.7594444,10
10/13/2000 19:14,clyde,Texas,cylinder,60.0,32.4058333,-99.4933333,10
10/13/2000 19:20,jenks,Oklahoma,fireball,30.0,36.0227778,-95.9680556,10
10/13/2000 19:30,amarillo,Texas,light,120.0,35.2219444,-101.8308333,10
10/13/2000 19:30,baird,Texas,fireball,60.0,32.39388889999999,-99.39388890000001,10
10/13/2000 19:53,elk city,Oklahoma,fireball,600.0,35.411944399999996,-99.40388890000001,10
10/13/2000 20:00,eugene (west of),Oregon,light,300.0,44.0522222,-123.08555559999999,10
10/13/2000 20:00,miami,Florida,chevron,8.0,25.7738889,-80.1938889,10
10/13/2000 21:30,orwigsburg,Pennsylvania,fireball,5.0,40.6547222,-76.1011111,10
10/13/2000 22:10,portland,Oregon,light,3.0,45.523611100000004,-122.675,10
10/13/2001 00:45,poughkeepsie,New York,triangle,2700.0,41.7002778,-73.92138890000001,10
10/13/2001 19:00,avondale,Arizona,triangle,120.0,33.4355556,-112.34888889999999,10
10/13/2001 19:55,minneapolis,Minnesota,light,10.0,44.98,-93.26361109999999,10
10/13/2001 22:00,stockton,California,triangle,120.0,37.9577778,-121.2897222,10
10/13/2002 01:00,heltonville,Indiana,light,1800.0,38.9277778,-86.3755556,10
10/13/2002 04:47,mary esther,Florida,triangle,1200.0,30.4097222,-86.66305559999999,10
10/13/2002 18:20,chicago,Illinois,fireball,10.0,41.85,-87.65,10
10/13/2002 19:00,alameda,California,cylinder,240.0,37.7652778,-122.2405556,10
10/13/2002 19:00,smithfield,North Carolina,disk,2100.0,35.5083333,-78.33972220000001,10
10/13/2002 19:10,eastman,Georgia,light,600.0,32.1975,-83.17777779999999,10
10/13/2002 23:00,ship bottom,New Jersey,triangle,60.0,39.6427778,-74.1808333,10
10/13/2003 01:00,deerfield beach,Florida,cigar,900.0,26.318055600000005,-80.1,10
10/13/2003 01:00,evansville,Indiana,light,600.0,37.9747222,-87.5558333,10
10/13/2003 06:00,craig,Colorado,triangle,1020.0,40.5152778,-107.54583329999998,10
10/13/2003 11:50,pocatello,Idaho,oval,10.0,42.8713889,-112.4447222,10
10/13/2003 18:30,wilton,California,disk,1800.0,38.411944399999996,-121.2711111,10
10/13/2003 19:12,phoenix,Arizona,sphere,10.0,33.4483333,-112.07333329999999,10
10/13/2003 20:00,binghamton,New York,sphere,30.0,42.09861110000001,-75.9183333,10
10/13/2003 21:00,provo,Utah,light,900.0,40.2338889,-111.65777779999999,10
10/13/2003 21:20,denver,Colorado,chevron,45.0,39.7391667,-104.98416670000002,10
10/13/2003 23:00,waterbury,Connecticut,disk,10.0,41.5580556,-73.0519444,10
10/13/2003 23:15,houston,Texas,light,600.0,29.763055600000005,-95.3630556,10
10/13/2003 23:15,zanesville,Ohio,rectangle,180.0,39.9402778,-82.0133333,10
10/13/2004 00:00,summerland key,Florida,cigar,20.0,24.665277800000002,-81.4425,10
10/13/2004 01:25,galveston,Texas,light,1800.0,29.301111100000004,-94.7975,10
10/13/2004 17:14,titusville,Pennsylvania,oval,600.0,41.6269444,-79.67388890000001,10
10/13/2004 19:00,oceanside,Oregon,disk,120.0,45.461111100000004,-123.96666670000002,10
10/13/2004 20:00,mena,Arkansas,light,60.0,34.586111100000004,-94.2394444,10
10/13/2004 21:40,twin falls,Idaho,light,60.0,42.563055600000006,-114.46,10
10/13/2004 23:00,parkersburg,West Virginia,circle,10.0,39.2666667,-81.5616667,10
10/13/2004 23:00,ravenel,South Carolina,chevron,10.0,32.7630556,-80.25027779999999,10
10/13/2004 23:50,new rochelle,New York,rectangle,300.0,40.9113889,-73.78277779999999,10
10/13/2004 24:00,white hall,Arkansas,triangle,300.0,34.273888899999996,-92.0908333,10
10/13/2005 02:20,siloam springs,Arkansas,circle,180.0,36.188055600000006,-94.5402778,10
10/13/2005 04:30,jupiter,Florida,light,10.0,26.933888899999996,-80.0944444,10
10/13/2005 05:05,boise,Idaho,chevron,4.0,43.6136111,-116.2025,10
10/13/2005 15:12,twin falls,Idaho,disk,120.0,42.563055600000006,-114.46,10
10/13/2005 17:32,terlton,Oklahoma,cylinder,120.0,36.188055600000006,-96.49,10
10/13/2005 17:32,terlton,Oklahoma,cylinder,120.0,36.188055600000006,-96.49,10
10/13/2005 18:40,mesa,Arizona,light,90.0,33.4222222,-111.8219444,10
10/13/2005 20:05,livermore,California,light,120.0,37.6819444,-121.76694440000001,10
10/13/2005 21:00,northfield,Minnesota,chevron,1800.0,44.4583333,-93.1613889,10
10/13/2005 21:30,hayward,California,rectangle,15.0,37.6688889,-122.0797222,10
10/13/2006 02:00,tamarac,Florida,cylinder,35.0,26.2125,-80.25,10
10/13/2006 05:00,brewer,Maine,light,240.0,44.7966667,-68.7619444,10
10/13/2006 10:30,vandenberg village,California,disk,60.0,34.7083333,-120.46666670000002,10
10/13/2006 17:30,la mesa,California,light,600.0,32.7677778,-117.0222222,10
10/13/2006 19:30,philadelphia,Pennsylvania,oval,1800.0,39.9522222,-75.1641667,10
10/13/2006 20:30,rawlins,Wyoming,triangle,30.0,41.7911111,-107.23805559999998,10
10/13/2006 20:50,beaumont,Texas,triangle,20.0,30.085833299999997,-94.1016667,10
10/13/2006 21:15,omaha,Nebraska,light,25.0,41.2586111,-95.9375,10
10/13/2006 22:00,de soto,Kansas,triangle,10.0,38.9791667,-94.9683333,10
10/13/2007 07:45,katy,Texas,triangle,5.0,29.785555600000006,-95.8241667,10
10/13/2007 11:15,fairfax,Virginia,sphere,600.0,38.8461111,-77.30666670000001,10
10/13/2007 15:30,ashland,Oregon,light,600.0,42.1947222,-122.70833329999999,10
10/13/2007 17:30,los angeles,California,cigar,15.0,34.0522222,-118.2427778,10
10/13/2007 18:30,marysville,Washington,cigar,900.0,48.0519444,-122.1758333,10
10/13/2007 20:28,mooresville,North Carolina,light,300.0,35.5847222,-80.8102778,10
10/13/2007 22:00,kennewick,Washington,cylinder,300.0,46.211388899999996,-119.13611110000001,10
10/13/2007 24:00,hudson,Wisconsin,sphere,180.0,44.9747222,-92.7566667,10
10/13/2008 05:30,santa rosa,California,light,10.0,38.4405556,-122.71333329999999,10
10/13/2008 06:00,newburyport,Massachusetts,light,300.0,42.8125,-70.87777779999999,10
10/13/2008 10:15,san francisco,California,circle,900.0,37.775,-122.41833329999999,10
10/13/2009 06:30,jackson,New Jersey,light,10.0,39.77638889999999,-74.86277779999999,10
10/13/2009 07:03,bend,Oregon,light,180.0,44.0583333,-121.31416670000002,10
10/13/2009 20:00,little river,South Carolina,light,9000.0,33.8730556,-78.6144444,10
10/13/2009 20:30,stockton,California,light,10.0,37.9577778,-121.2897222,10
10/13/2009 22:00,minersville,Pennsylvania,sphere,300.0,40.6905556,-76.2625,10
10/13/2009 23:10,crookston,Minnesota,triangle,180.0,47.7741667,-96.6077778,10
10/13/2010 01:00,pueblo,Colorado,flash,5.0,38.2544444,-104.60861109999999,10
10/13/2010 03:00,webster,Texas,cross,120.0,29.5375,-95.1180556,10
10/13/2010 04:45,rochester,New York,light,3600.0,43.1547222,-77.61583329999999,10
10/13/2010 14:30,las vegas,Nevada,circle,600.0,36.175,-115.1363889,10
10/13/2010 16:00,naperville,Illinois,cylinder,900.0,41.7858333,-88.1472222,10
10/13/2010 17:00,richmond,California,sphere,600.0,37.9358333,-122.34666670000001,10
10/13/2010 17:30,flora,Illinois,cross,90.0,38.6688889,-88.4855556,10
10/13/2010 18:15,grandview,Missouri,chevron,10.0,38.8858333,-94.53277779999999,10
10/13/2010 18:30,grandview,Missouri,chevron,10.0,38.8858333,-94.53277779999999,10
10/13/2010 20:00,lincoln,California,flash,3600.0,38.8916667,-121.29194440000002,10
10/13/2010 20:30,gilbert,Arizona,circle,60.0,33.3527778,-111.78833329999999,10
10/13/2010 20:40,grandview,Missouri,chevron,60.0,38.8858333,-94.53277779999999,10
10/13/2010 20:45,charleston,South Carolina,triangle,300.0,32.77638889999999,-79.9311111,10
10/13/2010 21:00,charlotte,North Carolina,light,600.0,35.226944399999994,-80.8433333,10
10/13/2010 21:00,san francisco,California,light,240.0,37.775,-122.41833329999999,10
10/13/2010 21:00,san francisco,California,sphere,1200.0,37.775,-122.41833329999999,10
10/13/2010 22:30,rio linda,California,cylinder,2.0,38.6911111,-121.4475,10
10/13/2010 22:45,etna,California,flash,1500.0,41.4569444,-122.8936111,10
10/13/2011 01:36,norman,Oklahoma,oval,120.0,35.2225,-97.4391667,10
10/13/2011 03:30,newark,New Jersey,light,10.0,40.735555600000005,-74.17277779999999,10
10/13/2011 19:20,merriam,Kansas,triangle,15.0,39.023611100000004,-94.69333329999999,10
10/13/2011 19:56,boiling springs,South Carolina,triangle,300.0,35.0463889,-81.9819444,10
10/13/2011 20:00,boiling springs,South Carolina,formation,300.0,35.0463889,-81.9819444,10
10/13/2011 20:30,avon,North Carolina,fireball,900.0,35.351944399999994,-75.5108333,10
10/13/2011 20:38,gurley,Alabama,diamond,480.0,34.701666700000004,-86.3758333,10
10/13/2011 21:00,surfside beach,South Carolina,light,1800.0,33.6058333,-78.9733333,10
10/13/2011 22:26,myrtle beach,South Carolina,circle,15.0,33.688888899999995,-78.8869444,10
10/13/2011 23:38,homestead,Florida,sphere,1800.0,25.4683333,-80.4777778,10
10/13/2012 01:00,bel air,Maryland,light,8.0,39.5358333,-76.34861109999999,10
10/13/2012 01:38,cary,North Carolina,fireball,4.0,35.791388899999994,-78.78138890000001,10
10/13/2012 06:30,cedar bluff,Alabama,circle,240.0,34.22,-85.6077778,10
10/13/2012 10:00,columbia,Maryland,triangle,600.0,39.2402778,-76.83972220000001,10
10/13/2012 15:00,stockton springs,Maine,sphere,3.0,44.4894444,-68.8575,10
10/13/2012 19:00,pueblo,Colorado,oval,5.0,38.2544444,-104.60861109999999,10
10/13/2012 19:00,taos,New Mexico,rectangle,10.0,36.4072222,-105.5725,10
10/13/2012 19:20,pekin,Illinois,triangle,120.0,40.5675,-89.6405556,10
10/13/2012 20:22,milford,Connecticut,oval,900.0,41.2222222,-73.0569444,10
10/13/2012 20:26,holyoke,Massachusetts,oval,1500.0,42.2041667,-72.6166667,10
10/13/2012 20:30,lemont,Illinois,oval,2400.0,41.6736111,-88.0016667,10
10/13/2012 20:30,milford,Connecticut,circle,540.0,41.2222222,-73.0569444,10
10/13/2012 20:30,milford,Connecticut,light,900.0,41.2222222,-73.0569444,10
10/13/2012 20:40,evergreen park,Illinois,oval,300.0,41.720555600000004,-87.7016667,10
10/13/2012 21:00,cromwell,Connecticut,cylinder,360.0,41.595,-72.64583329999999,10
10/13/2012 21:00,waterbury,Connecticut,fireball,300.0,41.5580556,-73.0519444,10
10/13/2012 21:15,york springs,Pennsylvania,oval,300.0,40.008888899999995,-77.11583329999999,10
10/13/2012 21:21,baton rouge,Louisiana,triangle,60.0,30.450555600000005,-91.1544444,10
10/13/2012 21:45,mount laurel,New Jersey,fireball,60.0,39.9338889,-74.89138890000001,10
10/13/2012 22:00,isle of palms,South Carolina,circle,180.0,32.786666700000005,-79.795,10
10/13/2012 23:00,mountain home,Arkansas,light,900.0,36.3352778,-92.385,10
10/13/2012 23:30,new bern,North Carolina,circle,120.0,35.1083333,-77.0444444,10
10/13/2012 24:00,kingston,Pennsylvania,light,300.0,41.2616667,-75.8972222,10
10/13/2013 00:00,bloomington,Minnesota,sphere,120.0,44.8408333,-93.2980556,10
10/13/2013 05:01,newark,Texas,circle,10800.0,33.0011111,-97.4841667,10
10/13/2013 18:57,council bluffs,Iowa,formation,480.0,41.2619444,-95.8608333,10
10/13/2013 18:57,council bluffs,Iowa,light,480.0,41.2619444,-95.8608333,10
10/13/2013 19:00,irondequoit,New York,fireball,600.0,43.213333299999995,-77.58,10
10/13/2013 19:00,orange,New Jersey,light,1800.0,40.7705556,-74.2330556,10
10/13/2013 19:30,oswego,Illinois,circle,600.0,41.6827778,-88.3513889,10
10/13/2013 19:40,mechanicsburg,Pennsylvania,fireball,180.0,40.2141667,-77.0088889,10
10/13/2013 19:45,pasadena,Maryland,circle,60.0,39.1072222,-76.5713889,10
10/13/2013 19:45,spring hill,Florida,diamond,300.0,28.555555600000005,-82.4505556,10
10/13/2013 19:47,spokane,Washington,flash,900.0,47.658888899999994,-117.425,10
10/13/2013 19:47,west palm beach,Florida,light,25.0,26.705277799999998,-80.0366667,10
10/13/2013 20:30,bushnell,Florida,sphere,2700.0,28.6647222,-82.1130556,10
10/13/2013 20:40,indianapolis,Indiana,circle,1200.0,39.7683333,-86.1580556,10
10/13/2013 20:59,silverdale,Washington,light,2640.0,47.644722200000004,-122.6936111,10
10/13/2013 21:15,livonia,Michigan,triangle,55.0,42.368333299999996,-83.3527778,10
10/13/2013 21:45,ligonier,Pennsylvania,light,180.0,40.243055600000005,-79.23777779999999,10
10/13/2013 22:00,walls,Mississippi,light,240.0,34.9577778,-90.1516667,10
10/13/2013 22:55,new york city (brooklyn),New York,sphere,420.0,40.7141667,-74.0063889,10
10/13/2013 23:00,warren,Michigan,sphere,3.0,42.4775,-83.0277778,10
10/13/2013 23:30,sheldon,Iowa,circle,300.0,43.1811111,-95.8558333,10
10/14/1974 16:30,fulton,Missouri,diamond,60.0,38.8466667,-91.9477778,10
10/14/1978 07:00,atlanta,Georgia,disk,900.0,33.7488889,-84.3880556,10
10/14/1986 20:30,san jose,California,light,120.0,37.3394444,-121.8938889,10
10/14/1990 21:00,reidsville,Georgia,oval,240.0,32.0866667,-82.1180556,10
10/14/1994 19:30,citra,Florida,sphere,120.0,29.4116667,-82.11,10
10/14/1994 20:30,cornersville,Tennessee,circle,1200.0,35.361388899999994,-86.83972220000001,10
10/14/1995 20:05,belmont,Michigan,triangle,1800.0,43.0755556,-85.6091667,10
10/14/1996 03:00,gainesville,Florida,circle,1800.0,29.651388899999997,-82.325,10
10/14/1998 19:55,overton,Nevada,fireball,10.0,36.5433333,-114.44611110000001,10
10/14/1998 22:00,tucson,Arizona,oval,120.0,32.2216667,-110.9258333,10
10/14/1999 08:30,prescott,Arizona,light,2700.0,34.54,-112.4677778,10
10/14/1999 14:00,yonkers,New York,light,300.0,40.9311111,-73.8991667,10
10/14/1999 20:15,el paso,Texas,triangle,1200.0,31.758611100000003,-106.4863889,10
10/14/1999 20:20,mead  (near spokane),Washington,light,3.0,47.7675,-117.3538889,10
10/14/1999 20:30,warrensville,North Carolina,circle,1350.0,36.460555600000006,-81.5191667,10
10/14/1999 22:10,nashville,Tennessee,light,660.0,36.165833299999996,-86.7844444,10
10/14/1999 22:50,raymond,New Hampshire,triangle,900.0,43.03611110000001,-71.18388890000001,10
10/14/2000 14:18,breezewood,Pennsylvania,cigar,120.0,39.9991667,-78.2388889,10
10/14/2000 16:05,mechanicsville,Virginia,circle,15.0,37.608611100000005,-77.37361109999999,10
10/14/2000 18:30,gonzales,Louisiana,rectangle,30.0,30.238333299999997,-90.92,10
10/14/2001 06:00,adkins,Texas,diamond,120.0,29.392777799999998,-98.2369444,10
10/14/2001 20:45,lake elmo,Minnesota,chevron,300.0,44.9958333,-92.8791667,10
10/14/2001 21:03,des moines,Iowa,light,5.0,41.60055560000001,-93.60888890000001,10
10/14/2001 22:00,savanna,Illinois,light,300.0,42.09444439999999,-90.1566667,10
10/14/2002 01:22,savage,Minnesota,triangle,10.0,44.779166700000005,-93.3361111,10
10/14/2002 02:00,joseph,Utah,triangle,2.0,38.626388899999995,-112.2163889,10
10/14/2002 07:10,ely,Nevada,light,1500.0,39.2475,-114.8877778,10
10/14/2002 16:15,littleton,Colorado,disk,600.0,39.6133333,-105.0161111,10
10/14/2002 18:45,dallesport,Washington,light,60.0,45.6175,-121.17833329999999,10
10/14/2002 19:00,los angeles,California,circle,1200.0,34.0522222,-118.2427778,10
10/14/2002 19:00,manteca,California,light,300.0,37.7975,-121.215,10
10/14/2002 19:00,temecula,California,circle,2.0,33.4936111,-117.1475,10
10/14/2002 19:00,walnut creek,California,light,300.0,37.906388899999996,-122.0638889,10
10/14/2002 19:00,westlake village,California,fireball,1200.0,34.1458333,-118.8047222,10
10/14/2002 19:02,creswell,Oregon,fireball,30.0,43.9180556,-123.02333329999999,10
10/14/2002 19:02,porterville,California,fireball,60.0,36.0652778,-119.01583329999998,10
10/14/2002 19:03,redwood valley,California,fireball,60.0,39.265555600000006,-123.20333329999998,10
10/14/2002 19:05,grass valley,California,fireball,10.0,39.2191667,-121.06,10
10/14/2002 19:05,ivins,Utah,fireball,5.0,37.16861110000001,-113.6786111,10
10/14/2002 19:05,madras,Oregon,chevron,30.0,44.6336111,-121.12833329999998,10
10/14/2002 19:05,medford,Oregon,light,300.0,42.326666700000004,-122.87444440000002,10
10/14/2002 19:10,fall river mills,California,fireball,120.0,41.0047222,-121.43722220000001,10
10/14/2002 19:30,anderson,California,light,300.0,40.4483333,-122.29666670000002,10
10/14/2002 19:30,goldendale,Washington,disk,300.0,45.8208333,-120.82055559999999,10
10/14/2002 19:30,las vegas,Nevada,sphere,60.0,36.175,-115.1363889,10
10/14/2002 20:15,elmo,Utah,circle,600.0,39.3897222,-110.81444440000001,10
10/14/2002 20:15,gaysville,Vermont,cone,37800.0,43.7783333,-72.6994444,10
10/14/2002 22:15,clarks summit,Pennsylvania,circle,10.0,41.4886111,-75.7088889,10
10/14/2003 11:30,yelm,Washington,oval,900.0,46.9422222,-122.60472220000001,10
10/14/2003 19:00,plains,Pennsylvania,triangle,60.0,41.2752778,-75.85055559999999,10
10/14/2003 19:58,san leandro,California,light,10.0,37.725,-122.155,10
10/14/2003 21:00,los angeles,California,triangle,30.0,34.0522222,-118.2427778,10
10/14/2003 21:24,orlando,Florida,formation,15.0,28.538055600000003,-81.3794444,10
10/14/2003 23:00,indianapolis,Indiana,oval,1.0,39.7683333,-86.1580556,10
10/14/2003 23:00,indianapolis,Indiana,oval,1.0,39.7683333,-86.1580556,10
10/14/2004 02:30,needville,Texas,light,60.0,29.399166700000002,-95.8375,10
10/14/2004 19:37,prescott (southwest of),Arizona,light,7200.0,34.54,-112.4677778,10
10/14/2005 01:00,columbus,Ohio,sphere,600.0,39.961111100000004,-82.99888890000001,10
10/14/2005 06:40,amarillo,Texas,sphere,420.0,35.2219444,-101.8308333,10
10/14/2005 13:30,littleton,Colorado,circle,1800.0,39.6133333,-105.0161111,10
10/14/2005 14:45,lenexa,Kansas,sphere,300.0,38.9536111,-94.7333333,10
10/14/2005 18:55,bonner springs,Kansas,light,300.0,39.0597222,-94.8833333,10
10/14/2005 19:45,lincoln (east of),Montana,egg,1800.0,46.955,-112.68083329999999,10
10/14/2005 21:00,correo,New Mexico,light,900.0,34.955,-107.18416670000002,10
10/14/2005 21:00,denver,Colorado,light,300.0,39.7391667,-104.98416670000002,10
10/14/2005 21:30,park rapids,Minnesota,triangle,1200.0,46.9222222,-95.0583333,10
10/14/2006 01:25,jaffrey,New Hampshire,fireball,10.0,42.813888899999995,-72.0236111,10
10/14/2006 02:00,waterbury,Connecticut,fireball,5.0,41.5580556,-73.0519444,10
10/14/2006 02:00,yuma,Virginia,formation,300.0,36.615,-82.6125,10
10/14/2006 02:24,fairfield,Connecticut,fireball,4.0,41.1411111,-73.2641667,10
10/14/2006 02:25,new york city (yonkers),New York,teardrop,120.0,40.7141667,-74.0063889,10
10/14/2006 18:00,provincetown,Massachusetts,circle,180.0,42.0583333,-70.1791667,10
10/14/2006 20:15,san diego,California,fireball,30.0,32.7152778,-117.1563889,10
10/14/2006 21:30,ogunquit,Maine,light,300.0,43.2488889,-70.5997222,10
10/14/2006 22:00,buchanan,Georgia,light,300.0,33.8025,-85.18861109999999,10
10/14/2007 15:00,las vegas,Nevada,light,600.0,36.175,-115.1363889,10
10/14/2007 16:00,honolulu,Hawaii,light,10.0,21.3069444,-157.8583333,10
10/14/2007 16:00,redondo beach,California,circle,180.0,33.849166700000005,-118.3875,10
10/14/2007 20:30,barbourville,Kentucky,oval,18000.0,36.8663889,-83.88888890000001,10
10/14/2007 21:50,blairstown,New Jersey,triangle,300.0,40.9827778,-74.9608333,10
10/14/2008 01:00,austin,Texas,sphere,1.0,30.266944399999996,-97.7427778,10
10/14/2008 01:30,valparaiso,Indiana,formation,5.0,41.4730556,-87.06111109999999,10
10/14/2008 10:00,hemet,California,formation,600.0,33.7475,-116.9711111,10
10/14/2008 16:45,falls church,Virginia,egg,600.0,38.8822222,-77.17138890000001,10
10/14/2008 17:00,vallejo,California,sphere,12.0,38.1041667,-122.25555559999998,10
10/14/2008 17:30,narberth,Pennsylvania,light,20.0,40.0083333,-75.2608333,10
10/14/2008 20:00,boonville,New York,formation,180.0,43.483611100000005,-75.33694440000001,10
10/14/2008 20:40,anderson,South Carolina,chevron,75.0,34.5033333,-82.6502778,10
10/14/2008 22:05,louisville,Kentucky,disk,120.0,38.2541667,-85.7594444,10
10/14/2008 22:35,manteca,California,circle,300.0,37.7975,-121.215,10
10/14/2009 02:20,honolulu,Hawaii,circle,300.0,21.3069444,-157.8583333,10
10/14/2009 19:00,avoca,Michigan,formation,240.0,43.061944399999994,-82.69111109999999,10
10/14/2009 19:05,syracuse,New York,cross,180.0,43.048055600000005,-76.1477778,10
10/14/2009 20:30,reno,Nevada,light,20.0,39.5297222,-119.81277779999999,10
10/14/2009 21:37,new york city,New York,oval,1080.0,40.7141667,-74.0063889,10
10/14/2009 22:00,creswell,Oregon,fireball,45.0,43.9180556,-123.02333329999999,10
10/14/2010 06:04,the colony,Texas,light,3.0,33.08888889999999,-96.8861111,10
10/14/2010 06:15,imperial,Missouri,formation,1200.0,38.3697222,-90.3783333,10
10/14/2010 18:30,foley,Alabama,cylinder,30.0,30.406388899999996,-87.6836111,10
10/14/2010 19:20,mitchell,South Dakota,light,120.0,43.709444399999995,-98.0294444,10
10/14/2010 19:30,ripon,California,triangle,480.0,37.7416667,-121.12333329999998,10
10/14/2010 21:25,livermore,California,light,90.0,37.6819444,-121.76694440000001,10
10/14/2011 00:00,blackjack (north st. louis co.),Missouri,light,60.0,37.8722222,-93.79166670000001,10
10/14/2011 01:30,oldsmar,Florida,triangle,1500.0,28.033888899999997,-82.6652778,10
10/14/2011 05:00,whitakers,North Carolina,triangle,240.0,36.105277799999996,-77.7130556,10
10/14/2011 05:30,scottsdale,Arizona,triangle,240.0,33.5091667,-111.89833329999999,10
10/14/2011 09:42,elmer,New Jersey,triangle,1200.0,39.595,-75.1705556,10
10/14/2011 10:00,honolulu,Hawaii,triangle,120.0,21.3069444,-157.8583333,10
10/14/2011 13:30,san bernardino,California,sphere,60.0,34.1083333,-117.2888889,10
10/14/2011 17:45,ocala,Florida,cylinder,240.0,29.186944399999994,-82.14027779999999,10
10/14/2011 18:00,el paso,Texas,circle,37800.0,31.758611100000003,-106.4863889,10
10/14/2011 18:30,strawberry,Arizona,flash,1.5,34.4077778,-111.4927778,10
10/14/2011 19:41,golden valley,Arizona,oval,3.0,35.2233333,-114.2222222,10
10/14/2011 19:41,golden valley,Arizona,oval,4.0,35.2233333,-114.2222222,10
10/14/2011 20:35,eufaula,Alabama,light,25.0,31.891111100000003,-85.1455556,10
10/14/2011 22:30,tempe,Arizona,sphere,300.0,33.4147222,-111.9086111,10
10/14/2011 22:30,york,Pennsylvania,triangle,2.0,39.9625,-76.7280556,10
10/14/2011 24:00,cibecue (west of),Arizona,light,300.0,34.0447222,-110.48472220000001,10
10/14/2012 02:46,modesto,California,diamond,120.0,37.639166700000004,-120.99583329999999,10
10/14/2012 07:30,fort worth,Texas,circle,60.0,32.7252778,-97.32055559999999,10
10/14/2012 12:50,centralia,Washington,egg,900.0,46.7163889,-122.95305559999998,10
10/14/2012 13:37,sierra madre,California,formation,180.0,34.161666700000005,-118.05194440000001,10
10/14/2012 15:30,raleigh,North Carolina,cylinder,60.0,35.771944399999995,-78.63888890000001,10
10/14/2012 16:45,santa barbara,California,light,900.0,34.4208333,-119.69722220000001,10
10/14/2012 19:00,loveland,Colorado,triangle,30.0,40.3977778,-105.07444440000002,10
10/14/2012 20:00,easton,Pennsylvania,fireball,1800.0,40.6883333,-75.22111109999999,10
10/14/2012 21:00,el centro,California,circle,1800.0,32.7919444,-115.56222220000001,10
10/14/2012 21:45,lakewood,New Jersey,light,180.0,40.097777799999996,-74.2180556,10
10/14/2012 21:45,toms river,New Jersey,circle,10.0,39.9536111,-74.1983333,10
10/14/2012 23:00,nanuet,New York,light,1.5,41.0886111,-74.01388890000001,10
10/14/2012 23:34,charleston,South Carolina,triangle,20.0,32.77638889999999,-79.9311111,10
10/14/2013 00:35,forked river,New Jersey,circle,60.0,39.839722200000004,-74.1905556,10
10/14/2013 01:40,albuquerque,New Mexico,flash,2700.0,35.084444399999995,-106.65055559999999,10
10/14/2013 11:47,hampton,New Hampshire,cylinder,60.0,42.9375,-70.8394444,10
10/14/2013 16:00,buckingham,Pennsylvania,rectangle,600.0,40.3236111,-75.0602778,10
10/14/2013 16:45,charlotte,North Carolina,sphere,240.0,35.226944399999994,-80.8433333,10
10/14/2013 18:00,vernon hills,Illinois,cigar,240.0,42.21944439999999,-87.9794444,10
10/14/2013 19:00,seaside,Oregon,light,900.0,45.993333299999996,-123.9213889,10
10/14/2013 19:15,oakland,California,light,300.0,37.804444399999994,-122.2697222,10
10/14/2013 19:30,green bay,Wisconsin,light,180.0,44.5191667,-88.0197222,10
10/14/2013 19:30,ruston,Louisiana,sphere,900.0,32.523055600000006,-92.6377778,10
10/14/2013 20:00,leland,Michigan,disk,120.0,45.023055600000006,-85.75972220000001,10
10/14/2013 20:15,holgate,New Jersey,circle,300.0,39.54,-74.2572222,10
10/14/2013 20:30,kalamazoo,Michigan,circle,300.0,42.2916667,-85.58722220000001,10
10/14/2013 20:30,point arena,California,triangle,900.0,38.908888899999994,-123.69194440000001,10
10/14/2013 23:00,warren,Ohio,circle,45.0,41.2375,-80.8186111,10
10/15/1936 17:00,eklutna,Alaska,cigar,180.0,61.4580556,-149.3622222,10
10/15/1943 11:00,owensboro,Kentucky,rectangle,1800.0,37.7741667,-87.1133333,10
10/15/1949 20:00,baltimore,Maryland,cigar,180.0,39.2902778,-76.6125,10
10/15/1952 21:00,richland,Washington,circle,5.0,46.2858333,-119.28333329999998,10
10/15/1953 14:00,mauriceville,Texas,disk,300.0,30.203333299999997,-93.8661111,10
10/15/1954 21:30,manistee,Michigan,circle,8.0,44.2444444,-86.3241667,10
10/15/1955 20:00,rhinebeck,New York,light,2400.0,41.9266667,-73.91305559999999,10
10/15/1957 20:30,houston (ellington afb),Texas,light,3.0,29.763055600000005,-95.3630556,10
10/15/1957 22:00,commerce city (n. of denver),Colorado,fireball,600.0,39.8083333,-104.93333329999999,10
10/15/1961 18:00,indialantic,Florida,oval,120.0,28.0891667,-80.5658333,10
10/15/1964 00:00,columbus,Ohio,cigar,600.0,39.961111100000004,-82.99888890000001,10
10/15/1965 15:00,new rochelle,New York,sphere,2.0,40.9113889,-73.78277779999999,10
10/15/1965 21:00,tabor,Iowa,oval,2700.0,40.8983333,-95.67111109999999,10
10/15/1966 02:00,boca raton (military trail),Florida,circle,21600.0,26.358333299999998,-80.08333329999999,10
10/15/1966 18:30,martinsville,Indiana,disk,60.0,39.4277778,-86.42833329999999,10
10/15/1966 19:00,running  springs,California,disk,1200.0,34.2077778,-117.10833329999998,10
10/15/1966 20:00,ukiah,Oregon,oval,1200.0,45.1341667,-118.9313889,10
10/15/1966 20:00,utica,New York,triangle,180.0,43.1008333,-75.2330556,10
10/15/1967 18:00,birmingham,Alabama,oval,300.0,33.5205556,-86.8025,10
10/15/1967 21:00,hampstead,North Carolina,disk,300.0,34.3675,-77.7108333,10
10/15/1967 21:00,north hollywood,California,fireball,900.0,34.1722222,-118.37805559999998,10
10/15/1967 23:00,saugus,California,light,180.0,34.4113889,-118.53916670000001,10
10/15/1968 02:00,hastings,Minnesota,triangle,120.0,44.743333299999996,-92.8522222,10
10/15/1968 07:30,crystal lake,Illinois,cigar,1800.0,42.241111100000005,-88.31611109999999,10
10/15/1968 20:00,bancroft (rural area near),Wisconsin,light,120.0,44.3097222,-89.51361109999999,10
10/15/1969 00:00,sharon,Connecticut,oval,120.0,41.8791667,-73.4772222,10
10/15/1969 06:00,pearl,Mississippi,cigar,1200.0,32.27444439999999,-90.1319444,10
10/15/1969 18:30,wilmington,Delaware,circle,60.0,39.7458333,-75.5469444,10
10/15/1969 19:00,hurst,Texas,disk,60.0,32.8233333,-97.1702778,10
10/15/1969 21:00,exeter (near),New Hampshire,cigar,1800.0,42.9813889,-70.9483333,10
10/15/1969 23:30,alpine,Arizona,disk,300.0,33.8480556,-109.1425,10
10/15/1971 18:00,bremerton,Washington,disk,600.0,47.5675,-122.63138889999999,10
10/15/1971 20:30,litchfield,Connecticut,circle,360.0,41.7472222,-73.1891667,10
10/15/1971 20:30,tinley park,Illinois,disk,900.0,41.5733333,-87.7844444,10
10/15/1971 24:00,lago vista (near austin),Texas,formation,1800.0,30.46,-97.9880556,10
10/15/1973 12:40,spokane,Washington,circle,900.0,47.658888899999994,-117.425,10
10/15/1973 16:00,collierville,Tennessee,disk,300.0,35.0419444,-89.66444440000001,10
10/15/1973 17:30,chazy,New York,light,300.0,44.8897222,-73.43638890000001,10
10/15/1973 18:00,englewood,Tennessee,disk,120.0,35.4244444,-84.4875,10
10/15/1973 19:30,houston,Texas,circle,2700.0,29.763055600000005,-95.3630556,10
10/15/1973 20:00,millington,Tennessee,disk,1800.0,35.3413889,-89.8972222,10
10/15/1974 18:00,memphis,Tennessee,cigar,1200.0,35.14944439999999,-90.04888890000001,10
10/15/1974 18:30,bath,Ohio,oval,2700.0,41.188888899999995,-81.63638890000001,10
10/15/1974 22:30,san francisco (south of),California,light,180.0,37.775,-122.41833329999999,10
10/15/1975 02:30,rockville,Maryland,disk,7200.0,39.0838889,-77.1530556,10
10/15/1975 03:00,rockville,Maryland,disk,7200.0,39.0838889,-77.1530556,10
10/15/1975 16:00,batesville,Mississippi,sphere,600.0,34.3113889,-89.9441667,10
10/15/1975 16:00,marianna,Florida,disk,300.0,30.774166700000002,-85.22694440000001,10
10/15/1975 16:00,marion,Kansas,light,2.0,38.3483333,-97.0169444,10
10/15/1975 18:00,nesconset,New York,disk,180.0,40.851944399999994,-73.1544444,10
10/15/1975 18:00,williston,North Dakota,disk,300.0,48.1333333,-103.6333333,10
10/15/1975 19:00,monroe,New York,disk,60.0,41.330555600000004,-74.18722220000001,10
10/15/1975 22:00,ryegate (south of),Montana,circle,3600.0,46.2972222,-109.25805559999999,10
10/15/1975 23:00,collinsville,Alabama,triangle,900.0,34.2638889,-85.8605556,10
10/15/1976 17:30,mineral king,California,disk,28800.0,36.4508333,-118.5938889,10
10/15/1976 21:00,eveleth,Minnesota,light,900.0,47.4625,-92.5397222,10
10/15/1977 21:00,biloxi,Mississippi,triangle,60.0,30.3958333,-88.8852778,10
10/15/1977 22:00,orlando,Florida,disk,60.0,28.538055600000003,-81.3794444,10
10/15/1977 23:00,kennewick,Washington,light,300.0,46.211388899999996,-119.13611110000001,10
10/15/1978 02:30,des plaines,Illinois,disk,30.0,42.033333299999995,-87.8833333,10
10/15/1978 19:00,coeur d&#39alene,Idaho,oval,10.0,47.6777778,-116.77944440000002,10
10/15/1978 20:00,cherokee,North Carolina,light,120.0,35.474166700000005,-83.315,10
10/15/1978 22:00,candia,New Hampshire,oval,1200.0,43.0777778,-71.27722220000001,10
10/15/1978 24:00,greenwich,Connecticut,circle,900.0,41.02638889999999,-73.6288889,10
10/15/1979 21:00,gig harbor,Washington,circle,600.0,47.32944439999999,-122.5788889,10
10/15/1980 02:30,columbus,Ohio,fireball,900.0,39.961111100000004,-82.99888890000001,10
10/15/1980 03:00,guntersville,Alabama,triangle,10.0,34.35805560000001,-86.29472220000001,10
10/15/1980 19:00,avon,Connecticut,disk,60.0,41.8097222,-72.83111109999999,10
10/15/1980 19:00,denham springs,Louisiana,rectangle,360.0,30.4866667,-90.95611109999999,10
10/15/1980 20:00,boonville,California,sphere,300.0,39.0091667,-123.365,10
10/15/1980 23:00,jonesport,Maine,oval,300.0,44.5327778,-67.5988889,10
10/15/1980 24:00,boonville,California,sphere,300.0,39.0091667,-123.365,10
10/15/1981 16:00,beaverton,Oregon,cigar,10.0,45.4872222,-122.8025,10
10/15/1981 16:30,san jose,California,disk,420.0,37.3394444,-121.8938889,10
10/15/1982 14:00,van nuys,California,disk,1200.0,34.1866667,-118.44805559999999,10
10/15/1982 19:30,smithfield,Rhode Island,circle,60.0,41.921944399999994,-71.55,10
10/15/1982 20:00,barton,Vermont,rectangle,1200.0,44.7480556,-72.1766667,10
10/15/1982 20:00,north hudson,New York,disk,120.0,43.9525,-73.72888890000002,10
10/15/1982 20:30,hampton,Virginia,chevron,9000.0,37.0297222,-76.3455556,10
10/15/1982 21:00,omaha,Nebraska,disk,120.0,41.2586111,-95.9375,10
10/15/1983 24:00,california valley,California,disk,600.0,35.32,-120.00583329999999,10
10/15/1984 19:00,skowhegan,Maine,disk,600.0,44.765,-69.7197222,10
10/15/1984 19:30,albuquerque,New Mexico,disk,2700.0,35.084444399999995,-106.65055559999999,10
10/15/1984 21:00,strafford,Missouri,circle,600.0,37.2683333,-93.11694440000001,10
10/15/1984 22:30,uvalde,Texas,circle,900.0,29.209444399999995,-99.7858333,10
10/15/1984 23:00,new boston,Texas,egg,3600.0,33.4597222,-94.4152778,10
10/15/1985 00:00,san ramon,California,disk,300.0,37.78,-121.97694440000001,10
10/15/1985 07:00,cleveland (massilon rd.&#44  montrose area),Ohio,diamond,15.0,41.499444399999994,-81.69555559999999,10
10/15/1985 20:00,hartford city,Indiana,triangle,600.0,40.451111100000006,-85.37,10
10/15/1985 22:00,camden,South Carolina,disk,600.0,34.2463889,-80.60722220000001,10
10/15/1986 02:00,orangeburg,South Carolina,cylinder,10800.0,33.4916667,-80.8558333,10
10/15/1986 02:30,salem,Oregon,cigar,1500.0,44.9430556,-123.0338889,10
10/15/1986 14:00,pinson,Alabama,circle,10.0,33.688888899999995,-86.6833333,10
10/15/1986 18:00,bellevue (yarrow point),Washington,disk,10.0,47.610555600000005,-122.19944440000002,10
10/15/1986 19:00,knoxville,Tennessee,disk,1500.0,35.960555600000006,-83.9208333,10
10/15/1986 19:00,petaluma,California,disk,1800.0,38.2325,-122.63555559999999,10
10/15/1986 19:20,ridgecrest,California,disk,1200.0,35.6225,-117.67,10
10/15/1986 22:00,onyx,California,fireball,4.0,35.6902778,-118.2197222,10
10/15/1987 02:00,raleigh,North Carolina,triangle,120.0,35.771944399999995,-78.63888890000001,10
10/15/1987 16:00,burnet,Texas,disk,20.0,30.758055600000006,-98.2280556,10
10/15/1987 20:00,bolingbrook,Illinois,triangle,300.0,41.6986111,-88.06833329999999,10
10/15/1987 21:00,itta bena,Mississippi,circle,300.0,33.495,-90.3197222,10
10/15/1987 21:00,yonkers,New York,rectangle,1800.0,40.9311111,-73.8991667,10
10/15/1987 22:00,eastchester,New York,triangle,180.0,40.8883333,-73.82861109999999,10
10/15/1987 22:30,baker,Montana,light,600.0,46.366944399999994,-104.2841667,10
10/15/1988 00:30,greers ferry (greers ferry lake),Arkansas,circle,180.0,35.576944399999995,-92.1772222,10
10/15/1988 02:00,bremerton,Washington,circle,1800.0,47.5675,-122.63138889999999,10
10/15/1988 13:00,tacoma,Washington,circle,120.0,47.2530556,-122.44305559999998,10
10/15/1988 20:00,pilot knob,Missouri,cigar,900.0,37.6211111,-90.64027779999999,10
10/15/1988 20:30,loveland,Colorado,chevron,300.0,40.3977778,-105.07444440000002,10
10/15/1988 21:00,odessa,Texas,circle,120.0,31.845555600000004,-102.3672222,10
10/15/1989 05:00,hampton,Virginia,cigar,300.0,37.0297222,-76.3455556,10
10/15/1989 10:30,morgantown,West Virginia,triangle,900.0,39.6294444,-79.95611109999999,10
10/15/1989 19:00,batesville,Arkansas,disk,480.0,35.769722200000004,-91.6408333,10
